     3.02           OBSERVATION DATA    M (MIXED)           RINEX VERSION / TYPE
Assistant 1.0       StaticToRinex       20220622 160316 LCL PGM / RUN BY / DATE 
       G = GPS       R = GLONASS       C = COMPASS          COMMENT             
       S = SBAS      J = QZSS          E = GALILEO          COMMENT             
WG017                                                       MARKER NAME         
1                                                           MARKER NUMBER       
                                                            MARKER TYPE         
                                                            OBSERVER / AGENCY
G10A3416000150      UniStrong G10A      0.33.171013         REC # / TYPE / VERS 
0                   UNIG10E2250                             ANT # / TYPE        
 -2267424.2262  5008961.0885  3221788.0691                  APPROX POSITION XYZ 
        1.5132        0.0000        0.0000                  ANTENNA: DELTA H/E/N
G    8 C1C L1C D1C S1C C2P L2P D2P S2P                      SYS / # / OBS TYPES 
R    8 C1C L1C D1C S1C C2P L2P D2P S2P                      SYS / # / OBS TYPES 
C   12 C1I L1I D1I S1I C7I L7I D7I S7I C6I L6I D6I S6I      SYS / # / OBS TYPES 
S    4 C1C L1C D1C S1C                                      SYS / # / OBS TYPES 
DBHZ                                                        SIGNAL STRENGTH UNIT
    10.000                                                  INTERVAL            
  2022    06    21    00    59   30.0000000     GPS         TIME OF FIRST OBS   
  2022    06    21    02    30   40.0000000     GPS         TIME OF LAST OBS    
     0                                                      RCV CLOCK OFFS APPL 
G L1C  0.00000                                              SYS / PHASE SHIFT   
G L2P  0.00000                                              SYS / PHASE SHIFT   
R L1C  0.00000                                              SYS / PHASE SHIFT   
R L2P  0.25000                                              SYS / PHASE SHIFT   
C L1I  0.00000                                              SYS / PHASE SHIFT   
C L7I  0.00000                                              SYS / PHASE SHIFT   
C L6I  0.00000                                              SYS / PHASE SHIFT   
S L1C  0.00000                                              SYS / PHASE SHIFT   
 22 R02  9 R03  9 R04  9 R05  9 R06 -4 R07  9 R08  9 R09 -2 GLONASS SLOT / FRQ #
    R10 -7 R11  0 R12 -1 R13  9 R14  9 R15  9 R16 -1 R17  9 GLONASS SLOT / FRQ #
    R18  9 R19  9 R20  2 R21  4 R22  9 R23  9               GLONASS SLOT / FRQ #
 C1C        0 C1P        0 C2C        0 C2P        0        GLONASS COD/PHS/BIS 
    18                                                      LEAP SECONDS        
*** Above antenna height is from mark to PHASE CENTER.      COMMENT             
    31     1        1.4880        ANT MEASURE TYPE/HEIGT    COMMENT             
    0.0730    0.1050    0.1320    0.1390    0.0000          COMMENT             
                    BASE STATION                            COMMENT             
                                                            END OF HEADER       
> 2022 06 21 00 59 30.0000000  0 27       0.000000000000
G01  19907812.227 8 104616259.242 8        70.375 8        50.548 8  19907828.883 8  81519231.578 8        54.572 8        50.226 8
G03  24181993.691 6 127077233.524 6      2852.213 6        38.854 6  24182013.250 8  99021281.900 8      2223.244 8        48.376 8
G07  20847481.422 7 109554254.603 7     -1791.988 7        47.221 7  20847495.316 8  85367009.953 8     -1396.307 8        50.226 8
G08  22929266.125 7 120494099.943 7     -2324.684 7        43.959 7  22929282.309 7  93891544.004 7     -1811.678 7        44.265 7
G14  22053263.535 7 115890681.558 7      2437.350 7        44.974 7  22053278.172 8  90304492.412 8      1899.143 8        48.536 8
G17  22727845.359 7 119435629.498 7      1538.541 7        43.850 7  22727860.742 8  93066792.820 8      1199.084 8        50.226 8
G21  21653990.566 8 113792486.283 8     -2480.816 8        48.622 8  21654002.930 8  88669525.326 8     -1933.064 8        50.226 8
G30  21146125.570 8 111123637.888 8       -24.430 8        48.871 8  21146142.039 8  86589915.844 8       -18.943 8        50.226 8
R09  22548568.371 8 120408090.888 8     -3744.146 8        48.212 8  22548572.523 7  93650765.773 7     -2911.459 7        45.235 7
R10  19539427.727 8 104156146.922 8     -1260.018 8        51.779 8                                                                
R11  20301027.867 9 108482537.444 9      2781.848 9        54.238 9  20301031.020 8  84375326.161 8      2163.670 8        50.949 8
R20  21133570.789 6 113010681.687 6     -3276.340 6        40.315 6  21133572.219 7  87897226.272 7     -2548.156 7        46.951 7
R21  19688401.398 9 105356615.954 9       526.197 9        55.573 9  19688404.836 8  81944058.296 8       409.277 8        51.107 8
C01  37566238.699 7 195617264.819 7        29.527 7        43.887 7  37566246.391 7 151263708.175 7        22.984 7        44.269 7  37566255.664 7 158955122.125 7        24.258 7        43.468 7
C02  37770307.348 6 196679902.607 6        22.594 6        41.438 6  37770312.355 7 152085394.090 7        17.203 7        45.248 7  37770321.734 7 159818593.629 7        18.418 7        42.144 7
C03  37028432.184 7 192816762.574 7        51.988 7        45.980 7  37028437.762 7 149098175.688 7        40.211 7        46.702 7  37028444.629 7 156679468.620 7        42.559 7        44.831 7
C04  38591180.414 6 200954406.110 6        24.117 6        40.103 6  38591186.891 7 155390719.688 7        18.629 7        43.644 7  38591195.395 6 163291976.757 6        19.141 6        41.864 6
C05  39466735.988 6 205513652.34816        28.434 6        39.024 6  39466746.148 7 158916232.060 7        21.891 7        42.062 7  39466752.859 6 166996746.442 6        23.027 6        39.926 6
C06  39159239.496 6 203912428.502 6     -1815.943 6        40.710 6  39159247.512 7 157678062.861 7     -1403.930 7        43.625 7  39159253.691 7 165695616.416 7     -1475.957 7        42.868 7
C07  36310811.598 8 189079925.076 8       274.195 8        48.377 8  36310814.891 8 146208604.683 8       211.578 8        49.145 8  36310820.711 8 153642964.404 8       222.656 8        48.795 8
C08  38487450.254 6 200414263.251 6      1789.605 6        40.672 6  38487458.445 7 154973047.413 7      1383.648 7        44.667 7  38487463.105 6 162853052.725 6      1454.318 6        41.776 6
C09  38645499.789 7 201237261.920 7     -1782.428 7        43.366 7  38645510.309 7 155609454.396 7     -1378.559 7        45.100 7  38645513.633 6 163521814.185 6     -1448.047 6        40.785 6
C10  36742185.520 7 191326204.931 7       391.012 7        46.960 7  36742193.711 7 147945585.301 7       302.438 7        47.913 7  36742198.184 7 155468264.440 7       318.066 7        46.888 7
C11  23871985.508 7 124307685.177 7     -2442.135 7        46.906 7  23871993.699 7  96122622.305 7     -1888.383 7        47.819 7  23871997.941 7 101010236.885 7     -1984.531 7        46.740 7
C13  39191225.766 6 204078997.576 6      1652.887 6        41.835 6  39191241.324 7 157806890.351 7      1277.945 7        43.682 7  39191245.203 7 165830984.222 7      1342.775 7        42.198 7
C16  39475059.074 6 205556986.211 6     -1769.674 6        40.595 6  39475076.246 6 158949760.05016     -1368.734 6        39.294 6  39475076.289 5 167031964.97715     -1438.965 5        32.144 5
S37  36963094.945 7 194242372.541 7         3.695 7        42.356 7
> 2022 06 21 00 59 40.0000000  0 27       0.000000000000
G01  19907687.785 8 104615605.746 8        62.656 8        50.695 8  19907704.645 8  81518723.351 8        48.805 8        50.226 8
G03  24176568.125 6 127048720.349 6      2852.383 6        39.788 6  24176587.184 8  98999063.852 8      2222.242 8        49.204 8
G07  20850899.367 7 109572215.133 7     -1797.637 7        47.515 7  20850913.074 8  85381005.151 8     -1400.609 8        50.226 8
G08  22933691.723 7 120517359.115 7     -2325.273 7        44.528 7  22933708.609 7  93909668.013 7     -1811.664 7        45.549 7
G14  22048629.266 7 115866327.305 7      2435.820 7        45.275 7  22048644.477 8  90285515.072 8      1898.141 8        48.433 8
G17  22724923.043 7 119420269.755 7      1535.898 7        45.726 7  22724937.965 8  93054824.228 8      1196.695 8        50.226 8
G21  21658716.656 8 113817324.536 8     -2484.746 8        48.652 8  21658729.734 8  88688879.815 8     -1936.332 8        50.226 8
G30  21146180.137 8 111123926.592 8       -31.055 8        48.766 8  21146197.164 8  86590140.799 8       -24.320 8        50.226 8
R09  22555583.777 7 120445561.675 7     -3747.814 7        47.522 7  22555591.223 7  93679909.674 7     -2915.059 7        45.481 7
R10  19541798.695 8 104168796.794 8     -1267.730 8        51.687 8                                                                
R11  20295829.602 9 108454756.405 9      2776.664 9        54.619 9  20295833.324 8  84353718.697 8      2159.652 8        50.453 8
R20  21139698.586 6 113043469.250 6     -3279.027 6        40.895 6  21139707.035 7  87922727.679 7     -2550.264 7        47.760 7
R21  19687427.328 9 105351401.095 9       519.184 9        54.842 9  19687430.477 8  81940002.311 8       403.803 8        51.138 8
C01  37566184.445 7 195616982.928 7        29.191 7        43.586 7  37566192.422 7 151263490.196 7        22.354 7        44.575 7  37566201.461 7 158954893.052 7        23.918 7        43.199 7
C02  37770265.793 6 196679686.793 6        22.473 6        41.687 6  37770270.910 7 152085227.190 7        17.451 7        45.327 7  37770280.340 7 159818418.258 7        18.527 7        42.304 7
C03  37028334.895 7 192816256.976 7        51.652 7        45.924 7  37028340.188 7 149097784.739 7        39.658 7        46.712 7  37028347.629 7 156679057.792 7        41.906 7        44.757 7
C04  38591137.074 6 200954179.477 6        23.195 6        40.895 6  38591143.762 7 155390544.412 7        18.369 7        44.621 7  38591151.426 6 163291792.580 6        19.191 6        41.687 6
C05  39466683.523 6 205513379.146 6        28.488 6        38.968 6  39466694.184 7 158916020.818 7        22.100 7        42.632 7  39466700.516 6 166996524.462 6        23.020 6        39.880 6
C06  39162729.523 6 203930602.188 6     -1815.691 6        40.634 6  39162737.715 7 157692115.895 7     -1404.717 7        43.720 7  39162743.867 7 165710383.979 7     -1475.887 7        42.959 7
C07  36310287.145 8 189077194.781 8       274.230 8        48.542 8  36310290.723 8 146206493.432 8       211.846 8        49.220 8  36310296.246 8 153640745.799 8       222.805 8        48.634 8
C08  38484016.672 6 200396384.824 6      1788.313 6        40.858 6  38484024.934 7 154959222.645 7      1383.311 7        44.559 7  38484029.828 6 162838525.028 6      1453.213 6        41.835 6
C09  38648925.961 7 201255103.565 7     -1783.738 7        43.304 7  38648936.691 7 155623250.654 7     -1378.916 7        45.494 7  38648939.875 6 163536311.975 6     -1449.305 6        40.822 6
C10  36741436.379 7 191322303.271 7       391.262 7        47.005 7  36741444.570 8 147942568.277 8       302.803 8        48.409 8  36741448.855 7 155465094.018 7       318.273 7        46.557 7
C11  23876678.828 7 124332123.059 7     -2443.074 7        46.263 7  23876686.125 7  96141519.209 7     -1888.818 7        47.992 7  23876691.012 7 101030094.645 7     -1985.398 7        47.213 7
C13  39188054.148 7 204062484.325 7      1651.867 7        42.062 7  39188070.531 7 157794121.270 7      1277.334 7        44.253 7  39188073.688 6 165817565.847 6      1342.373 6        41.747 6
C16  39478459.773 6 205574692.925 6     -1769.852 6        40.189 6  39478476.590 6 158963451.937 6     -1368.486 6        38.911 6  39478476.359 5 167046353.093 5     -1437.547 5        31.242 5
S37  36963090.414 7 194242350.580 7         2.695 7        42.433 7
> 2022 06 21 00 59 50.0000000  0 27       0.000000000000
G01  19907577.781 8 104615024.778 8        54.834 8        50.755 8  19907594.023 8  81518269.656 8        42.900 8        50.226 8
G03  24171142.254 6 127020208.088 6      2851.748 6        39.397 6  24171161.500 8  98976846.538 8      2222.195 8        48.202 8
G07  20854328.168 7 109590232.152 7     -1804.053 7        47.752 7  20854341.977 8  85395044.373 8     -1405.732 8        50.226 8
G08  22938118.449 7 120540619.052 7     -2325.869 7        45.222 7  22938134.902 7  93927792.635 7     -1812.256 7        45.114 7
G14  22043997.125 7 115841985.508 7      2433.721 7        46.518 7  22044012.379 8  90266547.438 8      1896.514 8        49.254 8
G17  22722003.855 7 119404930.593 7      1533.506 7        45.288 7  22722019.438 8  93042871.657 8      1194.248 8        50.226 8
G21  21663450.883 8 113842200.414 8     -2489.111 8        48.616 8  21663463.219 8  88708263.604 8     -1939.561 8        50.226 8
G30  21146247.707 8 111124280.533 8       -38.115 8        48.658 8  21146264.363 8  86590416.603 8       -29.385 8        50.226 8
R09  22562609.766 7 120483067.573 7     -3751.971 7        47.585 7  22562615.352 7  93709080.898 7     -2918.396 7        45.506 7
R10  19544189.699 8 104181520.758 8     -1275.879 8        51.829 8                                                                
R11  20290638.910 9 108427023.636 9      2771.178 9        55.144 9  20290642.203 8  84332148.765 8      2155.295 8        51.570 8
R20  21145836.535 6 113076280.332 6     -3282.117 6        40.015 6  21145842.840 7  87948247.385 7     -2552.496 7        47.475 7
R21  19686464.410 9 105346252.456 9       511.734 9        54.879 9  19686469.855 8  81935997.803 8       397.994 8        50.509 8
C01  37566130.566 7 195616700.997 7        28.672 7        44.030 7  37566138.723 7 151263272.185 7        21.863 7        45.568 7  37566147.297 7 158954663.966 7        23.182 7        43.527 7
C02  37770223.934 6 196679470.778 6        21.973 6        41.564 6  37770229.336 7 152085060.149 7        17.059 7        45.235 7  37770238.926 7 159818242.728 7        18.025 7        42.751 7
C03  37028238.016 7 192815751.233 7        50.918 7        46.014 7  37028243.488 7 149097393.678 7        39.480 7        47.014 7  37028250.637 7 156678646.830 7        41.658 7        44.860 7
C04  38591093.711 6 200953952.930 6        22.793 6        40.231 6  38591100.223 7 155390369.266 7        17.820 7        43.758 7  38591108.164 6 163291608.513 6        18.709 6        41.864 6
C05  39466631.434 6 205513105.738 6        27.695 6        39.448 6  39466641.703 7 158915809.393 7        21.355 7        42.382 7  39466648.141 6 166996302.308 6        22.146 6        39.448 6
C06  39166218.961 6 203948774.028 6     -1816.563 6        40.634 6  39166227.438 7 157706167.462 7     -1404.660 7        44.134 7  39166233.484 7 165725150.056 7     -1476.174 7        42.868 7
C07  36309762.387 8 189074461.063 8       273.926 8        48.628 8  36309765.820 8 146204379.548 8       211.648 8        49.679 8  36309771.438 8 153638524.434 8       222.635 8        48.560 8
C08  38480585.465 6 200378513.929 6      1786.992 6        41.309 6  38480592.977 7 154945403.787 7      1381.922 7        44.860 7  38480598.266 6 162824003.511 6      1451.834 6        41.950 6
C09  38652353.117 7 201272948.786 7     -1784.512 7        43.157 7  38652363.992 7 155637049.688 7     -1380.129 7        46.134 7  38652366.797 6 163550812.661 6     -1450.041 6        39.971 6
C10  36740685.605 7 191318396.602 7       391.406 7        47.031 7  36740694.156 8 147939547.402 8       302.488 8        48.479 8  36740698.578 7 155461919.533 7       317.986 7        46.861 7
C11  23881372.348 7 124356566.374 7     -2444.004 7        46.796 7  23881379.145 7  96160420.343 7     -1890.305 7        47.654 7  23881385.355 7 101049956.861 7     -1986.096 7        47.662 7
C13  39184884.656 7 204045975.794 7      1650.957 7        42.728 7  39184899.824 7 157781355.820 7      1276.941 7        44.151 7  39184903.480 7 165804151.338 7      1341.365 7        42.034 7
C16  39481859.637 6 205592395.936 6     -1769.824 6        39.741 6  39481876.125 6 158977140.990 6     -1368.801 6        39.448 6  39479309.371 5                     -1438.768 5        30.103 5
S37  36963086.441 7 194242328.534 7         2.412 7        42.533 7
> 2022 06 21 01 00  0.0000000  0 27       0.000000000000
G01  19907480.781 8 104614516.222 8        48.037 8        50.866 8  19907497.066 8  81517873.371 8        37.248 8        50.226 8
G03  24165716.512 6 126991696.714 6      2852.488 6        38.616 6  24165735.887 7  98954629.940 7      2222.482 7        47.446 7
G07  20857767.402 8 109608305.400 8     -1809.385 8        48.124 8  20857781.152 8  85409127.400 8     -1409.781 8        50.226 8
G08  22942544.012 7 120563879.442 7     -2325.264 7        43.923 7  22942561.285 7  93945917.604 7     -1811.813 7        45.058 7
G14  22039367.977 7 115817656.095 7      2432.898 7        46.759 7  22039382.602 8  90247589.485 8      1895.803 8        49.661 8
G17  22719088.375 7 119389611.805 7      1531.377 7        45.141 7  22719104.688 8  93030934.952 8      1194.006 8        50.226 8
G21  21668191.539 8 113867113.593 8     -2492.432 8        48.807 8  21668204.258 8  88727676.482 8     -1942.066 8        50.226 8
G30  21146327.430 8 111124699.577 8       -44.248 8        48.766 8  21146343.914 8  86590743.116 8       -34.510 8        50.226 8
R09  22569638.602 7 120520608.274 7     -3755.016 7        47.221 7  22569642.898 7  93738279.147 7     -2920.480 7        44.636 7
R10  19546590.996 8 104194318.810 8     -1282.389 8        51.967 8                                                                
R11  20285458.371 9 108399339.262 9      2766.820 9        55.171 9  20285463.527 8  84310616.477 8      2152.172 8        51.826 8
R20  21151974.902 6 113109114.748 6     -3283.627 6        40.672 6  21151982.922 8  87973785.231 8     -2554.195 8        48.688 8
R21  19685515.660 9 105341169.824 9       505.844 9        55.314 9  19685520.531 8  81932044.643 8       393.557 8        50.800 8
C01  37566075.926 7 195616418.888 7        29.330 7        43.995 7  37566084.332 7 151263054.024 7        22.754 7        45.168 7  37566093.188 7 158954434.729 7        23.666 7        43.507 7
C02  37770182.602 6 196679254.426 6        22.357 6        41.533 6  37770187.570 7 152084892.843 7        17.207 7        45.003 7  37770197.547 7 159818066.913 7        18.510 7        42.558 7
C03  37028140.410 7 192815245.227 7        51.576 7        45.726 7  37028146.168 7 149097002.389 7        40.059 7        46.996 7  37028153.359 7 156678235.684 7        41.400 7        44.605 7
C04  38591050.160 6 200953726.356 6        23.627 6        40.103 6  38591056.527 7 155390194.050 7        18.105 7        43.995 7  38591064.703 7 163291424.369 7        19.037 7        42.483 7
C05  39466578.758 6 205512831.984 6        28.197 6        39.548 6  39466589.027 7 158915597.679 7        21.797 7        42.330 7  39466595.543 6 166996079.798 6        23.061 6        39.834 6
C06  39169708.918 6 203966943.802 6     -1816.566 6        40.822 6  39169716.715 7 157720217.434 7     -1403.438 7        43.644 7  39169722.727 7 165739914.473 7     -1475.670 7        42.704 7
C07  36309236.398 8 189071723.796 8       274.447 8        48.836 8  36309240.262 8 146202262.906 8       212.383 8        49.193 8  36309245.809 8 153636300.171 8       223.236 8        48.742 8
C08  38477155.176 6 200360650.409 6      1786.752 6        41.438 6  38477162.652 7 154931590.604 7      1381.641 7        44.831 7  38477167.613 7 162809487.928 7      1452.436 7        42.006 7
C09  38655781.152 7 201290797.395 7     -1783.598 7        43.157 7  38655791.488 7 155650851.317 7     -1379.453 7        45.568 7  38655794.438 6 163565316.086 6     -1449.869 6        40.315 6
C10  36739934.855 7 191314484.699 7       392.416 7        47.187 7  36739942.621 8 147936522.481 8       303.496 8        48.165 8  36739947.285 7 155458740.801 7       318.588 7        46.557 7
C11  23886067.070 7 124381014.930 7     -2444.457 7        46.273 7  23886073.758 7  96179325.503 7     -1889.883 7        47.475 7  23886080.613 8 101069823.287 8     -1985.982 8        48.027 8
C13  39181715.332 7 204029471.838 7      1651.068 7        43.263 7  39181729.676 7 157768593.947 7      1276.855 7        43.507 7  39181734.027 7 165790740.548 7      1341.283 7        42.144 7
C16  39485258.910 6 205610095.099 6     -1768.637 6        39.741 6  39485275.258 6 158990827.049 6     -1368.223 6        39.241 6  39485276.824 5 167075134.16415     -1437.252 5        32.144 5
S37  36963082.023 7 194242306.373 7         2.959 7        42.775 7
> 2022 06 21 01 00 10.0000000  0 27       0.000000000000
G01  19907397.809 8 104614080.084 8        40.410 8        50.792 8  19907413.934 8  81517532.527 8        31.314 8        50.226 8
G03  24160291.488 6 126963186.600 6      2850.469 6        37.662 6  24160310.234 7  98932414.250 7      2221.453 7        46.796 7
G07  20861216.938 7 109626434.915 7     -1815.412 7        47.585 7  20861230.973 8  85423254.265 8     -1414.311 8        50.226 8
G08  22946970.008 7 120587140.231 7     -2325.549 7        43.092 7  22946987.695 7  93964042.896 7     -1812.182 7        44.999 7
G14  22034740.547 7 115793339.190 7      2431.582 7        46.438 7  22034754.973 8  90228641.268 8      1894.715 8        49.466 8
G17  22716177.332 7 119374313.418 7      1529.355 7        45.392 7  22716193.602 8  93019014.191 8      1192.096 8        50.226 8
G21  21672939.348 8 113892064.067 8     -2496.311 8        48.634 8  21672952.141 8  88747118.408 8     -1945.131 8        50.226 8
G30  21146419.742 8 111125183.771 8       -51.289 8        48.985 8  21146436.039 8  86591120.393 8       -39.779 8        50.226 8
R09  22576675.609 7 120558183.979 7     -3759.055 7        47.722 7  22576680.766 7  93767504.660 7     -2923.422 7        44.874 7
R10  19549004.477 8 104207190.997 8     -1290.254 8        51.690 8                                                                
R11  20280286.859 9 108371703.407 9      2761.668 9        55.320 9  20280289.582 8  84289121.938 8      2148.041 8        51.930 8
R20  21158122.582 6 113141972.120 6     -3286.613 6        40.437 6  21158127.020 8  87999340.960 8     -2556.201 8        48.754 8
R21  19684578.375 9 105336153.314 9       498.914 9        55.417 9  19684581.094 8  81928142.928 8       388.094 8        51.178 8
C01  37566021.891 7 195616136.688 7        28.744 7        44.219 7  37566030.191 7 151262835.810 7        22.344 7        44.917 7  37566039.063 7 158954205.405 7        23.207 7        43.488 7
C02  37770140.980 6 196679037.718 6        22.201 6        41.595 6  37770145.738 7 152084725.263 7        17.129 7        45.086 7  37770155.941 7 159817890.821 7        17.953 7        42.607 7
C03  37028043.055 7 192814739.030 7        51.166 7        45.820 7  37028048.922 7 149096610.970 7        39.277 7        46.712 7  37028056.086 7 156677824.346 7        41.156 7        44.651 7
C04  38591006.750 6 200953499.805 6        23.158 6        40.059 6  38591012.902 7 155390018.849 7        17.832 7        43.682 7  38591021.152 6 163291240.271 6        18.969 6        41.687 6
C05  39466526.121 6 205512557.876 6        28.041 6        38.854 6  39466536.352 7 158915385.728 7        21.699 7        42.433 7  39466542.957 6 166995857.093 6        22.621 6        39.926 6
C06  39173198.125 6 203985111.518 6     -1816.061 6        40.517 6  39173205.746 7 157734265.862 7     -1404.629 7        43.221 7  39173211.379 7 165754677.198 7     -1475.914 7        42.798 7
C07  36308709.984 8 189068983.058 8       274.643 8        48.789 8  36308713.988 8 146200143.588 8       212.363 8        49.166 8  36308719.527 8 153634073.099 8       223.188 8        48.854 8
C08  38473726.605 7 200342794.522 7      1785.619 7        42.006 7  38473733.941 7 154917783.294 7      1380.508 7        45.072 7  38473738.613 6 162794978.589 6      1450.512 6        41.835 6
C09  38659209.188 7 201308649.476 7     -1784.830 7        42.981 7  38659219.922 7 155664655.650 7     -1380.215 7        45.605 7  38659222.605 6 163579822.364 6     -1451.109 6        40.437 6
C10  36739182.605 7 191310567.720 7       392.455 7        47.084 7  36739190.012 8 147933493.618 8       303.398 8        48.185 8  36739194.906 7 155455557.924 7       319.105 7        46.294 7
C11  23890762.938 7 124405468.764 7     -2445.279 7        46.325 7  23890769.910 7  96198234.731 7     -1890.703 7        47.475 7  23890776.352 7 101089694.021 7     -1986.988 7        47.507 7
C13  39178547.188 7 204012972.579 7      1649.447 7        42.981 7  39178561.285 7 157755835.692 7      1275.801 7        43.507 7  39178565.406 7 165777333.520 7      1341.098 7        42.034 7
C16  39488657.539 6 205627790.408 6     -1769.225 6        40.189 6  39488672.816 6 159004510.160 6     -1367.813 6        38.676 6  39488673.281 5 167089512.999 5     -1438.141 5        32.656 5
S37  36963077.891 7 194242284.131 7         2.813 7        42.062 7
> 2022 06 21 01 00 20.0000000  0 27       0.000000000000
G01  19907328.563 8 104613716.430 8        33.588 8        50.541 8  19907344.648 8  81517249.159 8        26.066 8        50.226 8
G03  24154866.027 6 126934677.663 6      2851.518 6        36.014 6  24154884.813 7  98910199.521 7      2221.887 7        45.662 7
G07  20864678.055 8 109644620.696 8     -1821.041 8        48.041 8  20864691.777 8  85437424.994 8     -1419.090 8        50.226 8
G08  22951396.141 7 120610401.674 7     -2325.416 7        43.135 7  22951414.742 7  93982168.680 7     -1812.313 7        44.920 7
G14  22030115.398 7 115769034.913 7      2429.994 7        46.356 7  22030130.180 8  90209702.872 8      1893.527 8        49.789 8
G17  22713269.719 7 119359035.523 7      1527.611 7        44.757 7  22713285.184 8  93007109.351 8      1189.641 8        50.226 8
G21  21677694.305 8 113917051.773 8     -2500.260 8        48.055 8  21677707.270 8  88766589.354 8     -1948.191 8        50.226 8
G30  21146523.926 8 111125733.193 8       -57.760 8        48.670 8  21146540.738 8  86591548.507 8       -44.793 8        50.226 8
R09  22583719.191 8 120595794.519 8     -3762.275 8        48.652 8  22583724.348 7  93796757.233 7     -2925.580 7        44.065 7
R10  19551432.414 8 104220137.655 8     -1298.031 8        51.829 8                                                                
R11  20275124.074 9 108344116.206 9      2756.896 9        54.897 9  20275126.938 8  84267665.244 8      2144.100 8        52.496 8
R20  21164268.102 6 113174852.666 6     -3288.773 6        39.971 6  21164274.977 7  88024914.697 7     -2557.762 7        47.863 7
R21  19683653.105 9 105331202.969 9       492.391 9        55.284 9  19683656.828 8  81924292.666 8       382.934 8        51.332 8
C01  37565967.852 7 195615854.452 7        28.506 7        43.682 7  37565975.613 7 151262617.563 7        21.834 7        45.208 7  37565984.762 7 158953976.053 7        23.307 7        43.407 7
C02  37770098.957 6 196678820.845 6        22.139 6        41.470 6  37770104.180 7 152084557.552 7        17.166 7        44.816 7  37770114.305 7 159817714.580 7        18.131 7        42.607 7
C03  37027946.160 7 192814232.727 7        51.357 7        45.726 7  37027951.273 7 149096219.460 7        39.627 7        46.969 7  37027959.121 7 156677412.937 7        41.197 7        45.114 7
C04  38590962.473 6 200953273.332 6        22.666 6        39.645 6  38590969.449 7 155389843.720 7        18.064 7        43.720 7  38590977.719 7 163291056.253 7        18.619 7        42.090 7
C05  39466473.297 6 205512283.593 6        28.213 6        39.741 6  39466484.137 7 158915173.600 7        21.580 7        42.583 7  39466490.395 6 166995634.191 6        22.174 6        39.548 6
C06  39176686.004 6 204003277.300 6     -1815.752 6        40.273 6  39176694.375 7 157748312.738 7     -1403.732 7        43.407 7  39176699.891 7 165769438.356 7     -1475.854 7        42.656 7
C07  36308183.023 8 189066238.874 8       274.990 8        48.795 8  36308186.527 8 146198021.607 8       212.713 8        49.156 8  36308192.473 8 153631843.233 8       223.307 8        49.046 8
C08  38470299.352 7 200324946.214 7      1784.676 7        42.845 7  38470306.613 7 154903981.834 7      1379.998 7        45.195 7  38470310.855 6 162780475.363 6      1450.299 6        41.717 6
C09  38662638.363 7 201326505.088 7     -1785.439 7        42.533 7  38662648.988 7 155678462.684 7     -1380.412 7        45.494 7  38662651.965 6 163594331.451 6     -1450.736 6        40.634 6
C10  36738429.383 7 191306645.773 7       392.783 7        47.084 7  36738437.145 8 147930460.924 8       303.631 8        48.055 8  36738441.750 7 155452371.024 7       319.186 7        46.458 7
C11  23895460.512 7 124429927.876 7     -2445.791 7        46.702 7  23895467.738 7  96217148.069 7     -1891.467 7        47.877 7  23895473.383 7 101109569.040 7     -1987.182 7        47.593 7
C13  39175378.895 7 203996477.955 7      1650.125 7        42.632 7  39175393.492 7 157743081.031 7      1275.682 7        43.468 7  39175397.598 6 165763930.335 6      1340.279 6        41.978 6
C16  39492055.520 6 205645481.962 6     -1767.744 6        40.059 6  39492069.398 6 159018190.342 6     -1366.975 6        38.736 6  39492070.574 5 167103888.864 5     -1438.275 5        31.864 5
S37  36963073.754 7 194242261.897 7         2.436 7        42.356 7
> 2022 06 21 01 00 30.0000000  0 27       0.000000000000
G01  19907273.305 8 104613425.465 8        26.031 8        50.952 8  19907289.387 8  81517022.438 8        20.336 8        50.226 8
G03  24149439.953 5 126906170.369 5      2851.107 5        35.666 5  24149460.418 7  98887986.084 7      2221.525 7        44.653 7
G07  20868149.438 8 109662862.844 8     -1826.469 8        48.083 8  20868163.191 8  85451639.641 8     -1423.141 8        50.226 8
G08  22955823.805 7 120633663.951 7     -2325.531 7        43.242 7  22955842.020 7  94000295.097 7     -1812.340 7        44.176 7
G14  22025492.789 7 115744743.520 7      2429.000 7        46.167 7  22025507.813 8  90190774.534 8      1892.756 8        49.876 8
G17  22710366.211 7 119343778.254 7      1525.406 7        44.801 7  22710381.309 8  92995220.581 8      1188.188 8        50.226 8
G21  21682456.664 8 113942076.800 8     -2503.773 8        48.041 8  21682469.398 8  88786089.349 8     -1951.031 8        50.226 8
G30  21146641.234 8 111126347.999 8       -64.145 8        48.985 8  21146657.563 8  86592027.583 8       -50.074 8        50.226 8
R09  22590769.758 8 120633440.003 8     -3765.600 8        48.428 8  22590773.766 7  93826037.029 7     -2928.848 7        43.304 7
R10  19553875.922 8 104233158.468 8     -1305.332 8        51.984 8                                                                
R11  20269970.273 9 108316578.191 9      2751.889 9        54.622 9  20269974.859 8  84246246.808 8      2140.262 8        51.975 8
R20  21170422.031 6 113207756.438 6     -3291.422 6        40.103 6  21170429.480 7  88050506.523 7     -2559.846 7        47.329 7
R21  19682740.832 9 105326318.933 9       485.539 9        55.164 9  19682743.555 8  81920493.970 8       377.625 8        51.131 8
C01  37565913.414 7 195615572.371 7        28.477 7        43.567 7  37565921.711 7 151262399.441 7        22.127 7        45.544 7  37565930.449 7 158953746.844 7        23.145 7        43.178 7
C02  37770057.508 6 196678603.908 6        22.109 6        41.374 6  37770062.656 7 152084389.791 7        17.303 7        45.235 7  37770072.582 7 159817538.299 7        18.008 7        42.680 7
C03  37027848.508 7 192813726.490 7        51.133 7        45.690 7  37027854.375 7 149095827.990 7        39.725 7        47.093 7  37027861.844 7 156677001.549 7        41.758 7        44.932 7
C04  38590919.020 6 200953047.164 6        23.145 6        40.103 6  38590926.316 7 155389668.827 7        18.025 7        43.869 7  38590934.387 6 163290872.471 6        18.613 6        41.893 6
C05  39466421.184 6 205512009.253 6        27.852 6        39.241 6  39466431.273 7 158914961.453 7        21.326 7        43.048 7  39466437.617 6 166995411.255 6        22.578 6        40.189 6
C06  39180174.199 6 204021441.344 6     -1815.645 6        39.645 6  39180182.250 7 157762358.310 7     -1404.299 7        43.427 7  39180187.965 7 165784198.094 7     -1475.879 7        42.821 7
C07  36307655.453 8 189063491.540 8       275.000 8        48.807 8  36307658.742 8 146195897.182 8       213.104 8        49.543 8  36307664.961 8 153629610.790 8       223.867 8        49.096 8
C08  38466873.238 7 200307105.687 7      1784.588 7        42.704 7  38466880.539 7 154890186.438 7      1379.490 7        45.469 7  38466884.637 6 162765978.479 6      1449.512 6        41.502 6
C09  38666067.750 7 201344364.334 7     -1785.371 7        42.558 7  38666078.730 7 155692272.550 7     -1380.529 7        45.568 7  38666081.887 6 163608843.532 6     -1451.348 6        41.141 6
C10  36737675.188 7 191302719.013 7       393.496 7        47.296 7  36737682.914 8 147927424.497 8       304.197 8        48.076 8  36737687.523 7 155449180.199 7       320.000 7        46.508 7
C11  23900158.801 7 124454392.399 7     -2446.367 7        46.606 7  23900166.242 7  96236065.576 7     -1891.408 7        47.841 7  23900171.500 7 101129448.472 7     -1987.695 7        47.213 7
C13  39172212.207 7 203979988.346 7      1649.451 7        42.821 7  39172226.375 7 157730330.240 7      1275.350 7        43.468 7  39172230.977 6 165750531.178 6      1340.332 6        41.595 6
C16  39495452.102 6 205663169.946 6     -1768.086 6        40.189 6  39495466.699 6 159031867.731 6     -1366.662 6        39.597 6  39495467.605 5 167118261.743 5     -1436.289 5        32.407 5
S37  36963069.434 7 194242239.874 7         2.750 7        42.558 7
> 2022 06 21 01 00 40.0000000  0 27       0.000000000000
G01  19907231.641 8 104613205.825 8        18.225 8        50.759 8  19907240.613 7  81516823.298 7        14.256 7        42.192 7
G03  24144016.605 6 126877663.478 6      2850.039 6        36.231 6  24144035.508 7  98865772.953 7      2221.092 7        44.261 7
G07  20871631.129 7 109681159.924 7     -1832.557 7        47.730 7  20871644.953 8  85465897.101 8     -1428.164 8        50.226 8
G08  22960250.332 7 120656925.857 7     -2326.170 7        43.605 7  22960267.160 7  94018421.226 7     -1812.344 7        44.537 7
G14  22020872.328 7 115720463.772 7      2427.129 7        46.188 7  22020887.137 8  90171855.251 8      1891.248 8        49.304 8
G17  22707466.859 7 119328540.269 7      1522.773 7        44.874 7  22707481.828 8  92983346.820 8      1186.248 8        50.226 8
G21  21687225.750 8 113967137.707 8     -2508.045 8        48.199 8  21687238.285 8  88805617.334 8     -1954.277 8        50.226 8
G30  21146770.422 8 111127026.899 8       -71.170 8        48.917 8  21146786.594 8  86592556.589 8       -55.432 8        50.226 8
R09  22597825.480 8 120671118.930 8     -3769.730 8        49.085 8  22597831.355 7  93855342.827 7     -2931.891 7        43.366 7
R10  19556330.035 8 104246252.421 8     -1313.164 8        51.800 8                                                                
R11  20264826.508 9 108289088.008 9      2746.545 9        54.452 9  20264829.516 8  84224865.550 8      2136.221 8        51.806 8
R20  21176579.406 6 113240681.696 6     -3293.486 6        40.231 6  21176586.566 7  88076115.048 7     -2562.131 7        47.826 7
R21  19681839.164 9 105321499.773 9       478.588 9        55.242 9  19681844.176 8  81916745.738 8       372.035 8        51.335 8
C01  37565859.121 7 195615289.135 7        28.053 7        43.905 7  37565867.387 7 151262180.415 7        21.945 7        45.506 7  37565876.137 7 158953516.684 7        23.219 7        43.387 7
C02  37770015.484 6 196678385.606 6        21.783 6        41.533 6  37770020.746 7 152084220.982 7        16.730 7        45.154 7  37770030.617 7 159817360.914 7        17.398 7        42.751 7
C03  37027751.324 7 192813219.010 7        50.846 7        45.935 7  37027757.336 7 149095435.578 7        39.289 7        47.321 7  37027764.219 7 156676589.186 7        41.031 7        44.932 7
C04  38590875.566 6 200952819.979 6        22.604 6        39.926 6  38590882.723 7 155389493.151 7        17.355 7        44.151 7  38590890.570 7 163290687.854 7        18.434 7        42.251 7
C05  39466368.074 6 205511733.585 6        27.428 6        39.188 6  39466377.984 7 158914748.272 7        21.301 7        43.304 7  39466384.879 6 166995187.242 6        22.223 6        40.315 6
C06  39183661.688 6 204039602.247 6     -1816.791 6        40.397 6  39183670.523 7 157776401.405 7     -1404.520 7        43.795 7  39183675.746 7 165798955.270 7     -1475.922 7        42.775 7
C07  36307127.133 8 189060739.648 8       275.416 8        48.754 8  36307130.355 8 146193769.263 8       212.805 8        49.118 8  36307136.449 8 153627374.648 8       223.727 8        48.911 8
C08  38463447.918 7 200289271.692 7      1782.857 7        42.583 7  38463454.895 7 154876396.063 7      1378.527 7        45.003 7  38463459.660 6 162751486.869 6      1449.195 6        41.687 6
C09  38669498.141 7 201362225.895 7     -1786.381 7        42.607 7  38669508.836 7 155706084.215 7     -1381.316 7        45.581 7  38669512.355 6 163623357.483 6     -1451.859 6        41.502 6
C10  36736920.070 7 191298786.160 7       393.346 7        47.387 7  36736927.617 7 147924383.360 7       304.113 7        47.985 7  36736932.254 7 155445984.436 7       319.586 7        46.596 7
C11  23904857.094 7 124478860.992 7     -2447.416 7        46.377 7  23904865.359 8  96254986.230 8     -1892.313 8        48.523 8  23904870.238 7 101149331.199 7     -1988.598 7        47.616 7
C13  39169046.383 7 203963502.426 7      1648.150 7        42.821 7  39169060.480 7 157717582.305 7      1274.582 7        43.325 7  39169065.156 6 165737135.033 6      1339.352 6        41.950 6
C16  39498848.082 6 205680852.993 6     -1768.529 6        40.231 6  39498862.641 6 159045541.330 6     -1366.492 6        39.448 6  39498863.699 5 167132630.672 5     -1438.305 5        33.113 5
S37  36963064.977 7 194242216.689 7         2.697 7        42.583 7
> 2022 06 21 01 00 50.0000000  0 27       0.000000000000
G01  19907203.125 8 104613059.158 8        11.238 8        50.146 8  19907219.723 8  81516736.012 8         8.730 8        50.226 8
G03  24138592.520 6 126849158.784 6      2850.652 6        36.014 6  24138610.680 7  98843561.509 7      2221.211 7        43.885 7
G07  20875123.387 7 109699513.565 7     -1837.783 7        47.530 7  20875137.469 8  85480198.629 8     -1432.070 8        50.226 8
G08  22964677.266 7 120680188.634 7     -2326.143 7        43.720 7  22964693.836 7  94036548.028 7     -1811.990 7        44.265 7
G14  22016254.707 7 115696197.352 7      2426.492 7        45.980 7  22016269.730 8  90152946.382 8      1890.762 8        49.698 8
G17  22704571.211 7 119313323.201 7      1520.926 7        44.543 7  22704586.008 8  92971489.381 8      1185.430 8        50.226 8
G21  21692001.402 7 113992236.092 7     -2511.416 7        47.546 7  21692013.965 8  88825174.512 8     -1956.951 8        50.226 8
G30  21146911.898 8 111127771.538 8       -77.590 8        48.542 8  21146928.367 8  86593136.814 8       -60.234 8        50.226 8
R09  22604889.352 8 120708832.999 8     -3772.662 8        48.560 8  22604894.793 7  93884675.981 7     -2934.926 7        43.644 7
R10  19558801.602 8 104259421.271 8     -1320.387 8        52.084 8                                                                
R11  20259690.598 9 108261647.657 9      2741.947 9        54.253 9  20259694.605 8  84203523.068 8      2132.578 8        51.315 8
R20  21182742.348 6 113273630.341 6     -3295.488 6        40.477 6  21182748.938 8  88101741.752 8     -2563.217 8        48.232 8
R21  19680951.801 9 105316747.326 9       472.150 9        54.838 9  19680954.664 8  81913049.379 8       367.314 8        51.083 8
C01  37565804.813 7 195615006.398 7        28.393 7        43.977 7  37565813.109 7 151261961.772 7        22.277 7        45.750 7  37565821.988 7 158953286.942 7        23.324 7        43.527 7
C02  37769973.910 6 196678167.658 6        22.104 6        41.564 6  37769978.813 7 152084052.441 7        17.043 7        45.275 7  37769988.898 7 159817183.796 7        18.129 7        42.558 7
C03  37027653.801 7 192812711.949 7        50.893 7        45.726 7  37027659.813 7 149095043.474 7        39.465 7        47.354 7  37027666.945 7 156676177.166 7        41.566 7        44.917 7
C04  38590832.133 6 200952593.423 6        23.100 6        40.059 6  38590839.109 7 155389317.952 7        17.648 7        44.449 7  38590847.105 7 163290503.740 7        18.598 7        42.278 7
C05  39466315.230 6 205511458.202 6        27.826 6        39.448 6  39466325.531 7 158914535.339 7        21.516 7        43.070 7  39466331.777 6 166994963.465 6        22.621 6        39.645 6
C06  39187149.328 6 204057761.654 6     -1815.162 6        40.477 6  39187157.629 7 157790443.384 7     -1403.914 7        43.625 7  39187163.203 7 165813711.261 7     -1475.836 7        43.048 7
C07  36306598.082 8 189057984.926 8       275.893 8        48.990 8  36306601.266 8 146191639.131 8       213.371 8        49.246 8  36306607.438 8 153625136.215 8       224.125 8        48.730 8
C08  38460024.973 7 200271445.962 7      1782.084 7        42.936 7  38460032.309 7 154862612.079 7      1377.941 7        45.235 7  38460036.250 6 162737002.027 6      1448.266 6        41.806 6
C09  38672928.477 7 201380091.455 7     -1786.900 7        42.433 7  38672939.566 7 155719898.956 7     -1381.375 7        45.366 7  38672943.234 6 163637874.669 6     -1451.363 6        41.470 6
C10  36736164.430 7 191294848.823 7       394.330 7        47.419 7  36736170.977 7 147921338.768 7       304.699 7        47.841 7  36736176.027 7 155442785.025 7       320.648 7        46.654 7
C11  23909557.441 7 124503335.246 7     -2447.076 7        46.942 7  23909565.207 8  96273911.243 8     -1892.352 8        48.305 8  23909570.492 7 101169218.510 7     -1988.609 7        47.569 7
C13  39165881.293 7 203947021.873 7      1648.041 7        42.751 7  39165895.527 7 157704838.488 7      1274.387 7        43.221 7  39165900.172 6 165723743.230 6      1339.184 6        41.835 6
C16  39502242.105 6 205698532.736 6     -1768.072 6        40.015 6  39502257.633 6 159059212.379 6     -1366.648 6        39.788 6  39502259.449 5 167146996.825 5     -1435.191 5        33.325 5
S37  36963060.926 7 194242194.108 7         2.020 7        42.382 7
> 2022 06 21 01 01  0.0000000  0 27       0.000000000000
G01  19907189.367 8 104612985.444 8         4.367 8        50.257 8  19907205.695 8  81516679.566 8         3.363 8        50.226 8
G03  24133168.887 5 126820656.376 5      2849.250 5        35.544 5  24133186.457 7  98821351.844 7      2221.293 7        43.372 7
G07  20878627.402 7 109717923.666 7     -1843.094 7        47.370 7  20878640.824 8  85494544.139 8     -1436.109 8        50.226 8
G08  22969104.367 7 120703452.419 7     -2325.670 7        43.869 7  22969121.898 7  94054675.655 7     -1812.184 7        45.107 7
G14  22011639.832 7 115671944.369 7      2425.363 7        46.304 7  22011654.539 8  90134047.959 8      1889.926 8        49.633 8
G17  22701679.160 7 119298127.043 7      1519.699 7        43.995 7  22701694.570 8  92959648.257 8      1183.578 8        50.226 8
G21  21696784.516 7 114017371.860 7     -2514.811 7        47.752 7  21696797.207 8  88844760.790 8     -1959.625 8        50.226 8
G30  21147066.418 8 111128581.868 8       -83.543 8        48.640 8  21147082.672 8  86593768.251 8       -65.152 8        50.226 8
R09  22611956.398 8 120746582.056 8     -3775.813 8        48.076 8  22611960.695 7  93914036.297 7     -2937.078 7        43.644 7
R10  19561287.805 8 104272664.784 8     -1327.629 8        51.738 8                                                                
R11  20254564.879 9 108234257.107 9      2737.135 9        55.011 9  20254568.746 8  84182219.322 8      2128.998 8        51.158 8
R20  21188905.742 6 113306601.934 6     -3297.844 6        40.710 6  21188915.340 7  88127386.301 7     -2564.865 7        47.804 7
R21  19680074.914 9 105312061.209 9       465.887 9        54.624 9  19680079.641 8  81909404.627 8       362.518 8        51.371 8
C01  37565751.168 7 195614724.151 7        28.785 7        44.012 7  37565758.859 7 151261743.538 7        22.334 7        45.469 7  37565767.730 7 158953057.593 7        23.277 7        43.527 7
C02  37769931.965 6 196677949.984 6        22.594 6        41.406 6  37769936.902 7 152083884.104 7        17.373 7        45.114 7  37769947.117 7 159817006.918 7        17.965 7        42.583 7
C03  37027556.086 7 192812205.273 7        51.363 7        45.797 7  37027562.309 7 149094651.688 7        39.697 7        47.075 7  37027569.586 7 156675765.436 7        41.617 7        44.772 7
C04  38590789.223 6 200952367.490 6        23.316 6        40.189 6  38590795.555 7 155389143.239 7        17.686 7        43.777 7  38590803.652 7 163290320.159 7        18.648 7        42.144 7
C05  39466262.195 6 205511183.153 6        27.809 6        39.188 6  39466272.246 7 158914322.625 7        21.787 7        42.913 7  39466278.750 6 166994739.954 6        22.867 6        40.189 6
C06  39190636.781 6 204075919.544 6     -1815.434 6        40.595 6  39190644.723 7 157804484.176 7     -1403.936 7        43.507 7  39190650.398 7 165828465.983 7     -1474.887 7        43.199 7
C07  36306068.801 8 189055227.350 8       276.617 8        49.013 8  36306071.770 8 146189506.793 8       213.975 8        48.865 8  36306077.957 8 153622895.459 8       224.723 8        48.917 8
C08  38456603.949 7 200253628.320 7      1782.203 7        43.199 7  38456610.316 7 154848834.359 7      1377.979 7        44.575 7  38456614.695 6 162722523.750 6      1448.219 6        41.626 6
C09  38676360.195 7 201397960.886 7     -1786.625 7        42.090 7  38676371.426 7 155733716.703 7     -1381.514 7        45.702 7  38676374.727 6 163652395.017 6     -1451.527 6        41.564 6
C10  36735407.527 7 191290906.981 7       395.094 7        47.403 7  36735414.074 7 147918290.680 7       305.420 7        47.885 7  36735419.066 7 155439581.951 7       321.090 7        46.263 7
C11  23914258.746 7 124527815.104 7     -2447.717 7        46.778 7  23914266.758 8  96292840.613 8     -1892.627 8        48.305 8  23914271.879 7 101189110.380 7     -1988.871 7        47.623 7
C13  39162716.613 6 203930546.699 6      1647.340 6        41.835 6  39162732.176 7 157692098.836 7      1274.111 7        43.468 7  39162736.492 6 165710355.786 6      1339.273 6        41.835 6
C16  39505637.406 6 205716209.095 6     -1766.938 6        40.517 6  39505651.645 6 159072880.846 6     -1366.045 6        39.597 6  39505654.199 5 167161360.300 5     -1435.902 5        33.527 5
S37  36963056.473 7 194242171.983 7         2.570 7        42.607 7
> 2022 06 21 01 01 10.0000000  0 27       0.000000000000
G01  19907189.457 8 104612984.155 8        -2.869 8        50.949 8  19907205.426 8  81516677.562 8        -2.152 8        50.226 8
G03  24127744.648 5 126792155.780 5      2851.096 5        34.727 5  24127763.621 7  98799143.664 7      2220.875 7        43.538 7
G07  20882141.117 7 109736389.623 7     -1848.609 7        47.730 7  20882154.695 8  85508933.181 8     -1440.727 8        50.226 8
G08  22973531.008 7 120726716.803 7     -2325.914 7        43.488 7  22973548.406 7  94072803.719 7     -1812.680 7        44.425 7
G14  22007026.922 7 115647704.373 7      2424.455 7        46.315 7  22007042.121 8  90115159.672 8      1889.234 8        49.607 8
G17  22698790.941 7 119282951.290 7      1517.131 7        44.433 7  22698807.195 8  92947822.991 8      1181.891 8        50.226 8
G21  21701574.895 7 114042544.405 7     -2518.434 7        47.700 7  21701587.559 8  88864375.745 8     -1962.406 8        50.226 8
G30  21147232.781 8 111129457.423 8       -90.018 8        48.990 8  21147249.266 8  86594450.474 8       -69.965 8        50.226 8
R09  22619034.004 7 120784365.536 7     -3779.043 7        47.263 7  22619037.301 7  93943423.361 7     -2939.586 7        43.547 7
R10  19563784.426 8 104285982.481 8     -1334.604 8        51.144 8                                                                
R11  20249449.012 9 108206916.021 9      2732.438 9        55.089 9  20249453.023 8  84160954.028 8      2125.121 8        51.072 8
R20  21195078.840 6 113339596.218 6     -3299.791 6        41.037 6  21195083.426 7  88153048.504 7     -2566.539 7        47.554 7
R21  19679212.750 9 105307440.885 9       459.387 9        55.508 9  19679214.039 8  81905811.055 8       357.328 8        50.974 8
C01  37565696.418 7 195614441.873 7        29.102 7        44.012 7  37565704.719 7 151261525.270 7        22.314 7        45.494 7  37565713.699 7 158952828.227 7        23.607 7        43.221 7
C02  37769889.594 6 196677732.151 6        22.637 6        41.564 6  37769895.746 7 152083715.659 7        17.529 7        45.222 7  37769905.277 7 159816829.887 7        18.197 7        42.936 7
C03  37027458.945 7 192811698.499 7        51.465 7        45.820 7  37027465.277 7 149094259.806 7        39.873 7        47.321 7  37027472.469 7 156675353.646 7        41.576 7        44.946 7
C04  38590745.203 6 200952141.668 6        23.223 6        39.880 6  38590752.465 7 155388968.615 7        18.096 7        43.663 7  38590760.508 7 163290136.656 7        18.803 7        42.433 7
C05  39466210.023 6 205510907.854 6        28.379 6        39.693 6  39466219.930 7 158914109.726 7        22.158 7        43.003 7  39466226.156 6 166994516.232 6        23.100 6        40.356 6
C06  39194123.273 6 204094075.376 6     -1814.922 6        40.397 6  39194131.070 7 157818523.368 7     -1402.998 7        42.959 7  39194137.086 7 165843219.072 7     -1474.811 7        43.547 7
C07  36305538.379 8 189052466.435 8       276.719 8        48.957 8  36305541.668 8 146187371.864 8       214.207 8        49.241 8  36305547.637 8 153620651.979 8       225.092 8        48.882 8
C08  38453183.855 7 200235818.490 7      1781.895 7        43.263 7  38453189.652 7 154835062.693 7      1377.371 7        44.465 7  38453194.582 6 162708051.819 6      1446.889 6        41.776 6
C09  38679792.379 7 201415833.750 7     -1786.348 7        42.117 7  38679803.328 7 155747537.117 7     -1381.436 7        45.288 7  38679807.105 6 163666918.159 6     -1451.842 6        41.002 6
C10  36734649.586 7 191286960.234 7       395.586 7        47.246 7  36734656.633 7 147915238.804 7       305.945 7        47.971 7  36734661.270 7 155436374.906 7       321.439 7        46.577 7
C11  23918961.156 7 124552299.960 7     -2448.184 7        46.842 7  23918968.918 8  96311773.843 8     -1893.076 8        48.974 8  23918973.914 7 101209006.331 7     -1989.225 7        47.826 7
C13  39159553.621 6 203914076.466 6      1646.719 6        41.595 6  39159569.434 7 157679363.009 7      1274.109 7        43.507 7  39159573.441 7 165696972.412 7      1338.646 7        42.062 7
C16  39509030.387 6 205733881.594 6     -1766.152 6        40.231 6  39509045.625 6 159086546.270 6     -1364.658 6        39.834 6  39509048.336 5 167175720.611 5     -1435.162 5        34.253 5
S37  36963052.125 7 194242149.880 7         2.951 7        42.508 7
> 2022 06 21 01 01 20.0000000  0 27       0.000000000000
G01  19907202.762 8 104613055.227 8       -10.211 8        50.924 8  19907217.387 8  81516727.950 8        -7.908 8        50.226 8
G03  24122320.461 5 126763657.188 5      2851.154 5        35.666 5  24122340.895 7  98776936.988 7      2221.426 7        43.898 7
G07  20885666.039 8 109754911.408 8     -1854.293 8        48.006 8  20885679.391 8  85523365.725 8     -1444.842 8        50.226 8
G08  22977957.984 7 120749981.494 7     -2326.070 7        43.178 7  22977974.867 7  94090932.036 7     -1812.498 7        43.993 7
G14  22002416.355 7 115623477.412 7      2422.775 7        46.167 7  22002431.652 8  90096281.524 8      1887.852 8        49.827 8
G17  22695908.352 7 119267795.825 7      1515.354 7        45.820 7  22695923.348 8  92936013.580 8      1180.410 8        50.226 8
G21  21706372.336 8 114067753.613 8     -2521.949 8        48.138 8  21706384.711 8  88884019.278 8     -1965.174 8        50.226 8
G30  21147412.359 8 111130398.135 8       -96.852 8        48.974 8  21147427.973 8  86595183.494 8       -75.057 8        50.226 8
R09  22626113.672 7 120822183.249 7     -3782.643 7        47.692 7  22626122.695 7  93972837.074 7     -2942.301 7        43.814 7
R10  19566297.285 8 104299374.356 8     -1342.277 8        51.299 8                                                                
R11  20244343.078 9 108179624.485 9      2727.195 9        55.149 9  20244344.512 8  84139727.292 8      2121.191 8        51.229 8
R20  21201251.992 6 113372612.657 6     -3302.438 6        40.315 6  21201258.727 7  88178727.950 7     -2568.320 7        47.136 7
R21  19678362.234 9 105302886.604 9       452.730 9        55.520 9  19678363.813 8  81902268.835 8       352.166 8        50.811 8
C01  37565642.363 7 195614159.578 7        29.158 7        43.850 7  37565650.520 7 151261306.975 7        22.156 7        45.327 7  37565659.242 7 158952598.822 7        23.645 7        43.325 7
C02  37769848.238 6 196677514.054 6        22.518 6        41.374 6  37769853.676 7 152083547.021 7        17.098 7        45.182 7  37769863.375 7 159816652.680 7        18.449 7        43.092 7
C03  37027361.605 7 192811191.603 7        51.639 7        45.832 7  37027368.043 7 149093867.840 7        39.910 7        47.378 7  37027375.027 7                        41.730 7        44.727 7
C04  38590702.094 6 200951915.949 6        23.475 6        40.672 6  38590709.250 7 155388794.041 7        18.191 7        44.335 7  38590716.738 6 163289953.229 6        19.133 6        41.776 6
C05  39466156.109 6 205510632.313 6        28.592 6        39.024 6  39466167.164 7 158913896.671 7        21.707 7        43.366 7  39466173.094 6 166994292.327 6        23.039 6        40.477 6
C06  39197609.918 6 204112229.138 6     -1814.475 6        40.710 6  39197617.430 7 157832560.970 7     -1402.414 7        43.199 7  39197623.434 7 165857970.460 7     -1474.615 7        43.263 7
C07  36305007.719 8 189049702.124 8       277.127 8        48.968 8  36305010.832 8 146185234.333 8       214.305 8        49.085 8  36305016.855 8 153618405.755 8       225.461 8        48.682 8
C08  38449764.602 7 200218016.437 7      1780.428 7        43.048 7  38449770.469 7 154821296.995 7      1376.609 7        44.030 7  38449775.891 7 162693586.185 7      1446.477 7        42.034 7
C09  38683224.723 7 201433709.960 7     -1786.623 7        42.330 7  38683236.527 7 155761360.109 7     -1381.926 7        45.262 7  38683240.215 6 163681444.045 6     -1452.135 6        41.209 6
C10  36733890.270 7 191283008.472 7       396.014 7        47.280 7  36733897.277 7 147912183.054 7       306.316 7        47.554 7  36733902.289 7 155433163.771 7       322.180 7        46.407 7
C11  23923664.551 7 124576789.786 7     -2448.186 7        46.712 7  23923671.598 8  96330710.930 8     -1893.215 8        48.158 8  23923676.855 7 101228906.313 7     -1989.361 7        47.662 7
C13  39156391.824 7 203897610.956 7      1647.146 7        42.006 7  39156406.852 7 157666630.888 7      1273.699 7        43.284 7  39156411.609 7 165683592.877 7      1338.586 7        42.304 7
C16  39512423.844 6 205751550.189 6     -1765.568 6        39.788 6  39512439.441 6 159100208.750 6     -1365.969 6        40.231 6  39512441.488 5 167190077.763 5     -1434.635 5        34.253 5
S37  36963047.973 7 194242127.776 7         3.188 7        42.656 7
> 2022 06 21 01 01 30.0000000  0 27       0.000000000000
G01  19907229.945 8 104613198.727 8       -16.904 8        50.630 8  19907246.172 8  81516845.768 8       -13.121 8        50.226 8
G03  24116897.703 5 126735160.761 5      2850.965 5        34.417 5  24116918.621 7  98754732.053 7      2221.193 7        44.146 7
G07  20889201.266 8 109773489.026 8     -1859.482 8        48.245 8  20889214.961 8  85537841.774 8     -1449.195 8        50.226 8
G08  22982384.957 7 120773246.651 7     -2325.420 7        43.427 7  22982402.715 7  94109060.737 7     -1812.027 7        44.803 7
G14  21997808.648 7 115599263.612 7      2421.570 7        45.924 7  21997823.762 8  90077413.645 8      1886.916 8        49.580 8
G17  22693027.766 7 119252660.681 7      1513.660 7        45.843 7  22693043.246 8  92924219.973 8      1179.064 8        50.226 8
G21  21711175.785 7 114092999.463 7     -2525.342 7        47.562 7  21711189.063 8  88903691.354 8     -1967.770 8        50.226 8
G30  21147603.527 8 111131404.072 8      -102.783 8        48.865 8  21147619.254 8  86595967.340 8       -79.938 8        50.226 8
R09  22633203.793 8 120860035.266 8     -3785.971 8        48.670 8  22633210.668 7  94002277.479 7     -2944.502 7        44.269 7
R10  19568823.031 8 104312840.557 8     -1349.369 8        51.533 8                                                                
R11  20239244.734 9 108152382.810 9      2722.477 9        55.188 9  20239248.602 8  84118539.333 8      2117.543 8        51.741 8
R20  21207428.578 6 113405651.233 6     -3304.248 6        40.103 6  21207436.457 8  88204424.600 8     -2569.881 8        48.318 8
R21  19677523.180 9 105298398.178 9       446.506 9        54.925 9  19677526.188 8  81898777.861 8       347.262 8        51.086 8
C01  37565588.094 7 195613877.330 7        28.783 7        43.814 7  37565596.320 7 151261088.713 7        22.631 7        45.168 7  37565605.043 7 158952369.474 7        23.523 7        43.407 7
C02  37769806.414 6 196677295.820 6        22.436 6        41.438 6  37769811.961 7 152083378.260 7        17.436 7        45.208 7  37769821.270 7 159816475.359 7        18.172 7        42.775 7
C03  37027264.012 7 192810684.673 7        51.498 7        45.820 7  37027270.668 7 149093475.860 7        39.740 7        47.483 7  37027277.422 7 156674529.81417        41.980 7        44.682 7
C04  38590659.270 6 200951690.414 6        23.666 6        39.880 6  38590665.891 7 155388619.659 7        18.080 7        44.048 7  38590673.902 7 163289769.961 7        18.895 7        42.144 7
C05  39466103.734 6 205510356.661 6        28.705 6        38.736 6  39466113.680 7 158913683.519 7        21.596 7        43.026 7  39466120.176 6 166994068.344 6        22.820 6        40.059 6
C06  39201095.563 6 204130380.837 6     -1813.736 6        40.748 6  39201103.469 7 157846597.005 7     -1402.330 7        43.113 7  39201109.199 7 165872720.155 7     -1473.566 7        43.304 7
C07  36304475.809 8 189046934.578 8       277.963 8        48.968 8  36304479.277 8 146183094.290 8       214.818 8        49.188 8  36304485.324 8 153616156.894 8       225.789 8        48.882 8
C08  38446346.703 7 200200222.319 7      1779.076 7        42.775 7  38446352.676 7 154807537.435 7      1376.516 7        44.219 7  38446358.531 6 162679126.954 6      1446.824 6        41.656 6
C09  38686658.531 7 201451589.622 7     -1786.744 7        42.144 7  38686669.980 7 155775185.774 7     -1381.939 7        45.195 7  38686673.816 6 163695972.686 6     -1452.004 6        41.342 6
C10  36733130.875 7 191279051.841 7       397.045 7        47.467 7  36733137.957 8 147909123.544 8       306.869 8        48.212 8  36733142.523 7 155429948.703 7       322.527 7        46.596 7
