     3.02           OBSERVATION DATA    M (MIXED)           RINEX VERSION / TYPE
Assistant 1.0       StaticToRinex       20220622 163522 LCL PGM / RUN BY / DATE 
       G = GPS       R = GLONASS       C = COMPASS          COMMENT             
       S = SBAS      J = QZSS          E = GALILEO          COMMENT             
WG021                                                     MARKER NAME         
1                                                           MARKER NUMBER       
                                                            MARKER TYPE         
                                                            OBSERVER / AGENCY
G10A3416000150      UniStrong G10A      0.33.171013         REC # / TYPE / VERS 
0                   UNIG10E2250                             ANT # / TYPE        
 -2267436.6493  5009272.1263  3221299.2457                  APPROX POSITION XYZ 
        1.5633        0.0000        0.0000                  ANTENNA: DELTA H/E/N
G    8 C1C L1C D1C S1C C2P L2P D2P S2P                      SYS / # / OBS TYPES 
R    8 C1C L1C D1C S1C C2P L2P D2P S2P                      SYS / # / OBS TYPES 
C   12 C1I L1I D1I S1I C7I L7I D7I S7I C6I L6I D6I S6I      SYS / # / OBS TYPES 
S    4 C1C L1C D1C S1C                                      SYS / # / OBS TYPES 
DBHZ                                                        SIGNAL STRENGTH UNIT
    10.000                                                  INTERVAL            
  2022    06    21    05    03    0.0000000     GPS         TIME OF FIRST OBS   
  2022    06    21    06    07   10.0000000     GPS         TIME OF LAST OBS    
     0                                                      RCV CLOCK OFFS APPL 
G L1C  0.00000                                              SYS / PHASE SHIFT   
G L2P  0.00000                                              SYS / PHASE SHIFT   
R L1C  0.00000                                              SYS / PHASE SHIFT   
R L2P  0.25000                                              SYS / PHASE SHIFT   
C L1I  0.00000                                              SYS / PHASE SHIFT   
C L7I  0.00000                                              SYS / PHASE SHIFT   
C L6I  0.00000                                              SYS / PHASE SHIFT   
S L1C  0.00000                                              SYS / PHASE SHIFT   
  9 R01  1 R06 -4 R07  5 R08  6 R12 -1 R13 -2 R14 -7 R16 -1 GLONASS SLOT / FRQ #
    R23  3                                                  GLONASS SLOT / FRQ #
 C1C        0 C1P        0 C2C        0 C2P        0        GLONASS COD/PHS/BIS 
    18                                                      LEAP SECONDS        
*** Above antenna height is from mark to PHASE CENTER.      COMMENT             
    31     1        1.5380        ANT MEASURE TYPE/HEIGT    COMMENT             
    0.0730    0.1050    0.1320    0.1390    0.0000          COMMENT             
                    BASE STATION                            COMMENT             
                                                            END OF HEADER       
> 2022 06 21 05 03  0.0000000  0 24       0.000000000000
G02  23112312.320 7 121456021.376 7      1297.822 7        46.134 7  23112324.926 7  94641109.913 7      1011.246 7        47.152 7
G04  24349446.441 6 127957198.613 6       365.830 6        37.812 6  24349463.500 5  99706915.987 5       285.035 5        33.548 5
G06  20828458.215 8 109454287.166 8      -164.463 8        48.529 8  20828474.926 8  85289122.579 8      -127.953 8        50.226 8
G09  23510750.773 5 123549837.571 5      1645.010 5        34.417 5  23510763.352 3  96272626.389 3      1281.891 3        23.134 3
G11  22292976.848 7 117150385.775 7      1610.361 7        44.319 7  22292991.758 7  91286081.341 7      1254.879 7        47.377 7
G12  23344398.832 5 122675656.499 5      2596.436 5        35.901 5  23344414.602 6  95591441.826 6      2023.199 6        36.006 6
G17  21063470.527 8 110689281.997 8      -674.854 8        48.225 8  21063483.418 8  86251425.693 8      -525.863 8        50.226 8
G19  20275130.195 8 106546525.525 8       294.365 8        49.503 8  20275140.996 8  83023314.358 8       229.547 8        50.226 8
G20  22806588.414 6 119849431.825 6      3046.729 6        40.059 6  22806605.586 6  93389174.146 6      2374.000 6        37.325 6
R07  20784519.438 8 111261169.401 8      -459.422 8        50.725 8  20784525.309 8  86536471.406 8      -357.332 8        48.676 8
R08  20844325.215 8 111620412.144 8      3015.533 8        52.563 8  20844331.945 7  86815908.267 7      2345.504 7        47.819 7
R12  22223578.695 8 118714365.892 8     -3590.895 8        48.573 8  22223587.719 7  92333433.818 7     -2792.789 7        44.269 7
R13  21488089.734 6 114745216.714 6     -1082.197 6        38.968 6  21488096.035 6  89246311.096 6      -841.074 6        36.014 6
R23  21361717.773 8 114270795.764 8      1374.572 8        48.312 8                                                                
C01  37494115.758 7 195241695.392 7        18.053 7        45.301 7  37494124.914 7 150973301.343 7        13.918 7        45.958 7  37494133.121 7 158649947.828 7        14.463 7        42.632 7
C02  37679679.793 6 196207982.104 6        35.787 6        41.626 6  37679686.879 7 151720483.307 7        28.156 7        42.891 7  37679698.074 7 159435133.276 7        29.365 7        43.284 7
C03  36888750.215 7 192089399.524 7        39.518 7        47.435 7  36888756.473 8 148535735.015 8        30.090 8        48.466 8  36888764.918 7 156088437.394 7        32.393 7        46.167 7
C04  38556300.438 6 200772772.83216         0.045 6        38.968 6  38556309.094 7 155250278.055 7        -0.262 7        42.868 7  38556316.906 6 163144394.03116        -0.713 6        41.072 6
C05  39361578.023 6 204966069.94316        40.494 6        38.676 6  39361591.547 6 158492821.882 6        31.047 6        40.858 6  39361597.891 6 166551803.57616        31.279 6        37.346 6
C07  36079379.199 8 187874802.896 8      -580.875 8        48.560 8  36079385.637 8 145276732.688 8      -448.992 8        50.099 8  36079391.496 7 152663713.102 7      -471.906 7        47.992 7
C08  36266218.004 8 188847709.925 8      -200.543 8        48.877 8  36266223.047 8 146029055.173 8      -155.125 8        49.528 8  36266229.824 7 153454287.341 7      -163.174 7        47.577 7
C10  35789441.695 8 186365012.482 8      -229.938 8        49.063 8  35789449.707 8 144109282.986 8      -177.801 8        49.493 8  35789455.609 8 151436898.927 8      -186.846 8        48.110 8
C13  36845415.648 8 191863743.407 8       -57.279 8        49.423 8  36845428.242 7 148361273.002 7       -44.461 7        47.562 7  36845433.965 7 155905089.430 7       -46.611 7        47.101 7
S37  36956389.230 7 194207132.863 7         1.826 7        42.959 7
> 2022 06 21 05 03 10.0000000  0 24       0.000000000000
G02  23109843.164 7 121443045.966 7      1297.123 7        46.102 7  23109855.957 8  94630999.244 8      1010.791 8        48.362 8
G04  24348754.918 5 127953568.952 5       361.889 5        35.017 5  24348772.789 5  99704087.706 5       282.002 5        34.785 5
G06  20828772.480 8 109455938.088 8      -166.080 8        49.231 8  20828788.621 8  85290409.010 8      -129.482 8        50.226 8
G09  23507626.688 5 123533408.728 5      1641.146 5        34.575 5  23507640.281 3  96259848.650 3      1278.174 3        23.134 3
G11  22289914.863 7 117134290.112 7      1608.607 7        45.991 7  22289929.430 7  91273539.287 7      1253.330 7        47.659 7
G12  23339464.203 6 122649726.111 6      2590.189 6        36.438 6  23339480.500 6  95571236.266 6      2018.350 6        36.680 6
G17  21064758.105 8 110696048.563 8      -678.268 8        48.877 8  21064770.926 8  86256698.311 8      -528.779 8        50.226 8
G19  20274573.461 8 106543600.335 8       290.404 8        49.543 8  20274584.438 8  83021034.989 8       226.357 8        50.226 8
G20  22800793.230 6 119818976.388 6      3043.334 6        41.502 6  22800809.559 6  93365442.651 6      2371.416 6        37.758 6
R07  20785386.887 8 111265805.606 8      -468.230 8        52.473 8  20785389.895 7  86540077.344 7      -364.088 7        46.815 7
R08  20838700.676 8 111590284.540 8      3009.908 8        52.163 8  20838703.828 8  86792475.685 8      2341.111 8        48.865 8
R12  22230300.176 8 118750287.870 8     -3593.408 8        48.491 8  22230312.496 7  92361373.052 7     -2795.127 7        44.528 7
R13  21490123.379 6 114756068.352 6     -1089.613 6        38.911 6  21490134.551 6  89254751.210 6      -846.674 6        36.538 6
R23  21359149.809 8 114257049.292 8      1374.438 8        50.125 8                                                                
C01  37494080.168 7 195241513.898 7        18.100 7        45.531 7  37494090.254 7 150973161.021 7        13.787 7        45.808 7  37494098.711 7 158649800.347 7        14.549 7        43.304 7
C02  37679610.219 6 196207620.264 6        35.990 6        41.175 6  37679616.871 7 151720203.521 7        28.084 7        43.567 7  37679628.727 7 159434839.233 7        29.217 7        43.527 7
C03  36888674.699 7 192089006.744 7        39.115 7        47.145 7  36888681.066 8 148535431.302 8        30.076 8        48.285 8  36888689.402 7 156088118.247 7        31.990 7        45.889 7
C04  38556301.086 6 200772774.896 6        -0.689 6        39.834 6  38556309.527 7 155250279.629 7        -0.217 7        43.135 7  38556317.176 6 163144395.680 6        -0.451 6        40.967 6
C05  39361501.402 6 204965669.605 6        39.760 6        38.554 6  39361514.852 6 158492512.287 6        30.760 6        39.834 6  39361521.871 6 166551478.209 6        32.791 6        39.134 6
C07  36080496.426 8 187880619.217 8      -582.174 8        49.107 8  36080502.008 8 145281230.247 8      -450.197 8        50.397 8  36080508.469 8 152668439.332 8      -473.107 8        48.700 8
C08  36266603.820 8 188849720.116 8      -201.627 8        48.664 8  36266609.613 8 146030609.579 8      -155.939 8        49.755 8  36266615.719 7 153455920.784 7      -163.693 7        47.329 7
C10  35789883.887 8 186367316.146 8      -231.178 8        48.466 8  35789892.078 8 144111064.329 8      -178.771 8        49.493 8  35789898.102 7 151438770.835 7      -187.678 7        47.722 7
C13  36845525.867 8 191864319.408 8       -57.936 8        49.315 8  36845539.531 8 148361718.397 8       -44.924 8        48.573 8  36845544.785 7 155905557.455 7       -46.760 7        46.824 7
S37  36956385.262 7 194207112.210 7         2.064 7        43.346 7
> 2022 06 21 05 03 20.0000000  0 24       0.000000000000
G02  23107376.688 7 121430086.159 7      1294.568 7        45.494 7  23107389.598 8  94620900.768 8      1008.629 8        48.105 8
G04  24348073.941 5 127949991.634 5       354.041 5        32.656 5  24348091.473 4  99701300.146 4       275.953 4        28.575 4
G06  20829091.004 8 109457610.675 8      -168.947 8        49.418 8  20829107.258 8  85291711.321 8      -131.391 8        50.226 8
G09  23504507.570 5 123517018.789 5      1636.014 5        34.253 5  23504522.797 3  96247077.170 3      1273.258 3        23.134 3
G11  22286857.559 7 117118217.683 7      1605.916 7        47.049 7  22286871.383 8  91261015.323 8      1251.344 8        48.501 8
G12  23334541.125 6 122623843.659 6      2585.623 6        37.585 6  23334554.848 6  95551068.264 6      2014.840 6        36.483 6
G17  21066052.656 8 110702850.727 8      -682.365 8        48.706 8  21066065.148 8  86261998.690 8      -532.094 8        50.226 8
G19  20274024.273 8 106540715.250 8       286.072 8        48.789 8  20274035.406 8  83018786.859 8       222.984 8        50.226 8
G20  22795003.016 6 119788550.587 6      3040.818 6        41.374 6  22795019.645 6  93341734.315 6      2369.547 6        39.855 6
R07  20786269.051 8 111270531.368 8      -477.525 8        52.622 8  20786272.488 7  86543752.975 7      -371.588 7        47.475 7
R08  20833083.836 8 111560215.618 8      3003.445 8        52.854 8  20833088.277 8  86769088.759 8      2336.131 8        48.383 8
R12  22237030.074 8 118786235.585 8     -3596.494 8        48.979 8  22237042.965 7  92389332.304 7     -2797.004 7        44.786 7
R13  21492173.313 6 114766998.604 6     -1097.973 6        38.554 6  21492178.184 6  89263252.465 6      -853.512 6        36.731 6
R23  21356580.801 7 114243307.871 7      1373.482 7        47.963 7                                                                
C01  37494047.184 7 195241334.338 7        17.666 7        45.912 7  37494055.805 7 150973022.183 7        13.703 7        45.154 7  37494063.996 7 158649654.416 7        14.482 7        42.533 7
C02  37679541.391 6 196207260.090 6        35.498 6        40.822 6  37679548.188 7 151719925.052 7        27.180 7        42.751 7  37679558.863 7 159434546.563 7        28.779 7        42.171 7
C03  36888600.078 7 192088615.951 7        38.682 7        47.313 7  36888605.836 7 148535129.112 7        29.641 7        47.730 7  36888614.316 7 156087800.696 7        31.318 7        45.481 7
C04  38556301.621 6 200772778.813 6        -0.596 6        39.079 6  38556310.422 7 155250282.663 7        -0.672 7        44.874 7  38556318.012 6 163144398.899 6        -0.771 6        40.710 6
C05  39361425.348 6 204965271.00816        39.678 6        37.956 6  39361439.156 6 158492204.097 6        30.383 6        41.533 6  39361444.191 5 166551154.41115        32.236 5        33.720 5
C07  36081616.301 8 187886451.213 8      -584.365 8        49.063 8  36081622.273 8 145285739.900 8      -451.727 8        50.348 8  36081628.512 8 152673178.304 8      -474.873 8        48.900 8
C08  36266990.598 7 188851739.781 7      -202.744 7        47.546 7  36266997.320 8 146032171.331 8      -156.980 8        49.134 8  36267003.559 7 153457561.935 7      -164.951 7        47.246 7
C10  35790329.582 8 186369635.905 8      -233.291 8        48.784 8  35790337.953 8 144112858.088 8      -180.340 8        49.418 8  35790343.598 7 151440655.813 7      -189.600 7        47.928 7
C13  36845638.730 8 191864904.905 8       -59.561 8        49.463 8  36845651.824 8 148362171.106 8       -45.887 8        48.325 8  36845657.227 8 155906033.229 8       -48.584 8        48.103 8
S37  36956381.539 7 194207093.318 7         1.463 7        43.242 7
> 2022 06 21 05 03 30.0000000  0 24       0.000000000000
G02  23104913.508 7 121417140.358 7      1293.322 7        44.889 7  23104926.629 8  94610813.142 8      1007.764 8        48.942 8
G04  24347403.992 6 127946464.924 6       351.389 6        38.027 6  24347420.348 5  99698552.081 5       273.779 5        31.585 5
G06  20829412.395 8 109459303.258 8      -170.232 8        48.138 8  20829423.281 7  85293007.239 7      -132.646 7        43.468 7
G09  23501395.324 5 123500666.247 5      1632.873 5        32.407 5                                                                
G11  22283802.406 7 117102166.861 7      1603.869 7        45.127 7  22283816.445 7  91248508.212 7      1249.775 7        47.078 7
G12  23329621.055 5 122598008.052 5      2581.215 5        34.727 5  23329637.613 6  95530936.601 6      2011.299 6        37.221 6
G17  21067353.082 7 110709686.946 7      -685.564 7        47.538 7  21067366.203 8  86267325.590 8      -533.994 8        50.226 8
G19  20273482.676 8 106537868.813 8       282.639 8        48.877 8  20273493.836 8  83016568.862 8       220.361 8        50.226 8
G20  22789218.961 7 119758152.966 7      3038.285 7        43.263 7  22789235.328 6  93318047.919 6      2367.490 6        40.199 6
R07  20787168.699 8 111275344.829 8      -485.900 8        52.872 8  20787174.285 8  86547496.741 8      -378.238 8        50.094 8
R08  20827479.176 8 111530204.066 8      2998.197 8        52.246 8  20827484.332 8  86745746.480 8      2331.885 8        48.616 8
R12  22243765.273 8 118822207.266 8     -3598.434 8        50.695 8  22243776.875 7  92417310.217 7     -2798.818 7        46.428 7
R13  21494231.707 6 114778006.062 6     -1103.898 6        37.093 6  21494239.012 6  89271813.810 6      -860.111 6        37.737 6
R23  21354011.367 8 114229569.931 8      1373.660 8        49.193 8                                                                
C01  37494011.699 7 195241155.141 7        17.453 7        44.651 7  37494020.500 7 150972883.599 7        13.504 7        45.031 7  37494029.809 7 158649508.823 7        14.510 7        43.448 7
C02  37679472.391 6 196206900.138 6        35.598 6        41.037 6  37679478.293 6 151719646.654 6        27.723 6        41.072 6  37679490.246 7 159434254.080 7        29.002 7        43.221 7
C03  36888524.707 7 192088225.612 7        38.820 7        46.759 7  36888530.754 8 148534827.264 8        30.066 8        48.312 8  36888539.531 7 156087483.507 7        31.756 7        46.102 7
C04  38556301.301 6 200772783.14216        -0.770 6        37.427 6  38556310.781 7 155250286.072 7        -0.813 7        42.251 7  38556318.969 6 163144402.462 6        -1.096 6        40.189 6
C05  39361348.367 5 204964872.75015        39.035 5        35.901 5  39361362.785 6 158491896.163 6        30.164 6        41.342 6  39361397.660 5                        32.479 5        32.656 5
C07  36082739.684 8 187892297.369 8      -585.359 8        49.193 8  36082745.297 8 145290260.534 8      -452.707 8        50.319 8  36082751.281 8 152677928.791 8      -475.686 8        48.712 8
C08  36267379.488 7 188853767.353 7      -203.543 7        47.362 7  36267386.820 8 146033739.154 8      -157.277 8        49.090 8  36267393.418 7 153459209.472 7      -165.080 7        47.569 7
C10  35790778.145 8 186371970.204 8      -234.266 8        48.871 8  35790786.371 8 144114663.113 8      -181.164 8        49.665 8  35790792.168 7 151442552.628 7      -190.510 7        47.885 7
C13  36845752.887 8 191865498.410 8       -59.988 8        49.778 8  36845765.695 7 148362630.028 7       -46.379 7        47.978 7  36845771.305 7 155906515.460 7       -48.361 7        47.855 7
S37  36956378.254 7 194207074.663 7         1.662 7        42.913 7
> 2022 06 21 05 03 40.0000000  0 24       0.000000000000
G02  23102452.438 7 121404206.320 7      1292.518 7        46.528 7  23102465.070 8  94600734.705 8      1007.137 8        50.117 8
G04  24346741.441 6 127942986.823 6       345.174 6        36.635 6  24346758.324 5  99695841.915 5       268.914 5        32.165 5
G06  20829738.465 8 109461013.573 8      -172.307 8        48.836 8  20829754.863 8  85294358.941 8      -134.348 8        50.226 8
G09  23498289.625 5 123484348.863 5      1632.732 5        32.656 5  23498309.285 3  96221649.206 3      1270.379 3        20.124 3
G11  22280750.652 7 117086135.420 7      1601.775 7        45.072 7  22280765.918 8  91236016.237 8      1248.172 8        48.337 8
G12  23324716.262 6 122572216.914 6      2576.072 6        37.812 6  23324729.238 6  95510839.595 6      2007.213 6        38.303 6
G17  21068659.906 8 110716554.887 8      -688.771 8        48.396 8  21068673.512 8  86272677.229 8      -536.691 8        50.226 8
G19  20272948.051 8 106535058.731 8       278.611 8        49.346 8  20272958.824 8  83014379.189 8       217.020 8        50.226 8
G20  22783438.871 7 119727781.247 7      3035.525 7        42.936 7  22783455.598 6  93294381.709 6      2365.299 6        40.407 6
R07  20788084.629 8 111280243.885 8      -494.605 8        53.019 8  20788088.352 8  86551307.126 8      -384.736 8        48.402 8
R08  20821885.074 8 111500247.671 8      2992.264 8        52.275 8  20821890.086 8  86722447.072 8      2327.182 8        48.940 8
R12  22250504.301 8 118858200.643 8     -3600.684 8        48.232 8  22250514.898 7  92445304.961 7     -2800.836 7        42.407 7
R13  21496304.520 6 114789088.240 6     -1112.631 6        39.834 6  21496314.117 6  89280433.236 6      -865.098 6        38.364 6
R23  21351444.613 7 114215833.098 7      1373.336 7        47.992 7                                                                
C01  37493976.824 7 195240974.038 7        17.975 7        45.072 7  37493986.375 7 150972743.568 7        13.727 7        45.642 7  37493994.926 7 158649361.662 7        14.428 7        43.003 7
C02  37679402.742 6 196206538.186 6        36.041 6        41.717 6  37679409.430 7 151719366.816 7        27.555 7        44.168 7  37679420.328 7 159433959.985 7        28.939 7        42.330 7
C03  36888449.621 7 192087833.503 7        39.127 7        47.246 7  36888455.453 7 148534524.067 7        30.133 7        47.229 7  36888464.074 7 156087164.890 7        31.635 7        45.353 7
C04  38556302.699 6 200772785.702 6        -0.678 6        39.134 6  38556311.715 7 155250287.979 7        -0.375 7        45.327 7  38556319.160 6 163144404.439 6        -0.416 6        40.931 6
C05  39361271.387 6 204964472.47416        39.713 6        38.968 6  39361285.230 6 158491586.623 6        30.504 6        40.103 6  39361291.270 6 166550500.46016        32.475 6        39.346 6
C07  36083864.957 8 187898155.395 8      -586.830 8        49.252 8  36083870.039 8 145294790.330 8      -453.891 8        50.282 8  36083876.270 8 152682688.918 8      -476.842 8        48.318 8
C08  36267770.488 7 188855800.482 7      -204.037 7        46.824 7  36267777.285 8 146035311.287 8      -157.523 8        50.090 8  36267783.883 7 153460861.556 7      -165.729 7        47.834 7
C10  35791228.133 8 186374316.755 8      -235.443 8        48.510 8  35791237.398 8 144116477.613 8      -182.309 8        49.866 8  35791242.750 8 151444459.363 8      -191.275 8        48.138 8
C13  36845867.969 8 191866097.665 8       -60.932 8        49.220 8  36845880.598 7 148363093.416 7       -47.133 7        47.411 7  36845886.164 7 155907002.431 7       -49.166 7        46.768 7
S37  36956374.641 7 194207053.929 7         1.600 7        43.488 7
> 2022 06 21 05 03 50.0000000  0 24       0.000000000000
G02  23099993.402 7 121391285.780 7      1292.178 7        46.102 7  23100006.367 8  94590666.771 8      1006.904 8        49.945 8
G04  24346089.516 6 127939559.026 6       341.338 6        38.428 6  24346106.301 5  99693170.947 5       265.965 5        33.597 5
G06  20830067.578 8 109462743.407 8      -173.369 8        48.957 8  20830083.707 8  85295710.853 8      -135.070 8        50.226 8
G09  23495194.262 5 123468068.829 5      1627.646 5        33.720 5  23495212.578 3  96208967.475 3      1268.057 3        20.124 3
G11  22277705.516 7 117070125.140 7      1600.576 7        46.951 7  22277719.852 8  91223540.695 8      1247.314 8        48.755 8
G12  23319815.938 6 122546472.067 6      2573.369 6        37.263 6  23319829.387 6  95490778.726 6      2005.264 6        39.327 6
G17  21069973.492 8 110723456.510 8      -691.242 8        48.402 8  21069986.355 8  86278055.137 8      -538.371 8        50.226 8
G19  20272420.473 8 106532286.829 8       275.752 8        49.074 8  20272431.535 8  83012219.241 8       214.969 8        50.226 8
G20  22777664.539 7 119697437.308 7      3033.857 7        42.913 7  22777681.340 6  93270737.096 6      2364.053 6        40.448 6
R07  20789016.500 8 111285230.024 8      -502.447 8        52.171 8  20789019.367 7  86555185.229 7      -390.578 7        47.538 7
R08  20816301.898 8 111470348.099 8      2987.803 8        51.387 8  20816306.766 8  86699191.867 8      2323.727 8        48.859 8
R12  22257246.086 8 118894217.131 8     -3602.150 8        49.392 8  22257255.684 7  92473317.726 7     -2801.723 7        44.575 7
R13  21498399.438 6 114800246.682 6     -1118.824 6        37.737 6  21498404.449 6  89289112.066 6      -870.596 6        38.616 6
R23  21348877.758 8 114202099.187 8      1374.045 8        48.968 8                                                                
C01  37493941.875 7 195240792.851 7        18.666 7        45.353 7  37493951.676 7 150972603.456 7        14.355 7        45.248 7  37493960.457 7 158649214.424 7        15.264 7        43.527 7
C02  37679333.523 6 196206176.077 6        36.869 6        41.141 6  37679340.031 7 151719086.797 7        28.730 7        44.889 7  37679350.758 7 159433665.732 7        29.736 7        42.607 7
C03  36888373.895 7 192087441.369 7        39.721 7        46.888 7  36888380.152 7 148534220.835 7        30.781 7        47.435 7  36888388.848 7 156086846.253 7        32.236 7        45.379 7
C04  38556304.023 6 200772788.145 6         0.443 6        39.448 6  38556312.395 7 155250289.851 7         0.176 7        45.100 7  38556319.980 6 163144406.411 6         0.244 6        41.626 6
C05  39361194.582 6 204964072.088 6        40.775 6        38.364 6  39361208.570 6 158491276.968 6        31.465 6        40.059 6  39361214.430 6 166550175.104 6        33.076 6        38.676 6
C07  36084993.168 8 187904027.106 8      -587.115 8        49.273 8  36084997.785 8 145299330.693 8      -453.926 8        50.257 8  36085003.730 8 152687460.153 8      -476.943 8        48.542 8
C08  36268162.813 7 188857841.095 7      -203.619 7        47.427 7  36268168.609 8 146036889.214 8      -157.578 8        49.433 8  36268176.090 8 153462519.724 8      -165.283 8        48.144 8
C10  35791681.379 8 186376677.438 8      -236.178 8        48.013 8  35791691.145 8 144118303.033 8      -182.559 8        49.834 8  35791696.063 8 151446377.620 8      -191.982 8        48.076 8
C13  36845984.520 8 191866704.468 8       -60.143 8        49.689 8  36845995.969 7 148363562.632 7       -46.738 7        47.229 7  36846002.566 7 155907495.516 7       -49.072 7        46.915 7
S37  36956370.496 7 194207032.940 7         2.666 7        43.814 7
> 2022 06 21 05 04  0.0000000  0 24       0.000000000000
G02  23097537.691 7 121378378.413 7      1290.025 7        46.315 7  23097550.301 8  94580609.113 8      1005.236 8        49.411 8
G04  24345447.496 6 127936181.330 6       335.826 6        37.179 6  24345463.379 5  99690538.903 5       261.701 5        30.915 5
G06  20830399.297 8 109464492.307 8      -176.068 8        48.131 8  20830416.340 8  85297073.658 8      -137.186 8        50.226 8
G09  23492102.219 5 123451825.558 5      1622.350 5        32.656 5  23492122.727 3  96196310.424 3      1263.830 3        23.134 3
G11  22274662.699 7 117054135.504 7      1597.916 7        46.538 7  22274677.293 8  91211081.268 8      1245.100 8        48.602 8
G12  23314925.230 6 122520773.493 6      2566.764 6        36.124 6  23314937.137 6  95470753.867 6      2000.100 6        38.449 6
G17  21071293.117 8 110730391.532 8      -695.443 8        48.712 8  21071305.668 8  86283459.021 8      -541.443 8        50.226 8
G19  20271899.793 8 106529552.861 8       271.314 8        48.652 8  20271911.340 8  83010088.887 8       211.428 8        50.226 8
G20  22771896.250 7 119667120.877 7      3030.377 7        42.483 7  22771912.293 6  93247113.940 6      2361.271 6        38.368 6
R07  20789963.293 8 111290303.287 8      -511.783 8        53.109 8  20789964.871 8  86559131.083 8      -398.254 8        48.062 8
R08  20810730.063 8 111440505.548 8      2980.770 8        51.168 8  20810733.500 8  86675981.002 8      2318.781 8        49.204 8
R12  22263994.922 8 118930256.331 8     -3604.932 8        48.454 8  22264008.098 7  92501348.158 7     -2804.295 7        44.742 7
R13  21500500.965 6 114811481.158 6     -1126.605 6        39.241 6  21500507.410 6  89297849.961 6      -876.234 6        40.634 6
R23  21346311.645 8 114188368.060 8      1372.955 8        49.876 8                                                                
C01  37493906.672 7 195240611.170 7        17.844 7        45.340 7  37493916.543 7 150972462.973 7        14.033 7        45.262 7  37493925.574 7 158649066.831 7        14.621 7        42.891 7
C02  37679264.121 6 196205813.338 6        36.086 6        41.595 6  37679270.094 7 151718806.306 7        28.252 7        44.742 7  37679280.961 7 159433370.944 7        29.875 7        42.304 7
C03  36888298.621 7 192087048.883 7        39.074 7        46.366 7  36888305.133 7 148533917.333 7        30.127 7        47.928 7  36888313.453 7 156086527.304 7        31.848 7        45.630 7
C04  38556303.699 6 200772790.114 6        -0.574 6        39.188 6  38556312.859 7 155250291.388 7        -0.322 7        45.182 7  38556319.813 6 163144408.023 6        -0.027 6        40.748 6
C05  39361117.738 6 204963671.054 6        39.914 6        38.854 6  39361131.047 7 158490966.901 7        30.947 7        42.680 7  39361137.223 6 166549849.259 6        32.004 6        40.748 6
C07  36086122.840 8 187909912.215 8      -589.422 8        48.370 8  36086127.848 8 145303881.415 8      -455.791 8        49.917 8  36086133.852 7 152692242.284 7      -478.738 7        47.956 7
C08  36268555.883 7 188859888.608 7      -205.164 7        47.646 7  36268561.680 8 146038472.497 8      -158.838 8        49.341 8  36268569.039 7 153464183.525 7      -167.020 7        47.863 7
C10  35792137.625 8 186379051.827 8      -238.348 8        48.048 8  35792146.855 8 144120139.041 8      -184.014 8        49.616 8  35792151.949 8 151448307.003 8      -193.660 8        48.055 8
C13  36846102.316 8 191867318.438 8       -61.727 8        49.665 8  36846113.980 7 148364037.396 7       -47.979 7        46.833 7  36846120.355 7 155907994.426 7       -50.457 7        47.040 7
S37  36956365.805 7 194207011.324 7         2.018 7        43.644 7
> 2022 06 21 05 04 10.0000000  0 24       0.000000000000
G02  23095084.691 7 121365486.171 7      1288.262 7        46.325 7  23095096.727 8  94570563.214 8      1003.752 8        49.342 8
G04  24344812.766 5 127932855.700 5       329.881 5        35.418 5  24344830.109 5  99687947.578 5       256.994 5        32.165 5
G06  20830737.164 8 109466262.252 8      -177.951 8        48.724 8  20830753.160 8  85298451.840 8      -138.709 8        50.226 8
G09  23489015.609 5 123435621.304 5      1618.770 5        31.864 5  23489040.223 3  96183683.706 3      1261.799 3        23.134 3
G11  22271623.449 7 117038168.650 7      1595.410 7        45.901 7  22271639.375 8  91198639.598 8      1243.068 8        48.906 8
G12  23310046.965 6 122495123.088 6      2562.285 6        38.298 6  23310057.512 6  95450766.544 6      1996.643 6        41.530 6
G17  21072619.320 8 110737361.891 8      -699.064 8        48.415 8  21072631.996 8  86288890.457 8      -544.529 8        50.226 8
G19  20271387.406 8 106526858.932 8       267.225 8        48.700 8  20271398.883 8  83007989.706 8       208.225 8        50.226 8
G20  22766132.246 7 119636834.090 7      3027.012 7        43.135 7  22766147.500 6  93223513.950 6      2358.734 6        39.866 6
R07  20790926.984 8 111295465.445 8      -520.768 8        53.193 8  20790928.848 7  86563146.133 7      -405.238 7        46.683 7
R08  20805166.676 8 111410721.894 8      2975.264 8        52.004 8  20805172.262 8  86652815.965 8      2313.986 8        49.035 8
R12  22270743.895 8 118966320.063 8     -3607.656 8        49.650 8  22270755.781 7  92529397.597 7     -2806.090 7        46.241 7
R13  21502621.398 6 114822793.615 6     -1136.068 6        40.315 6  21502625.266 6  89306648.531 6      -883.107 6        39.079 6
R23  21343744.098 7 114174641.658 7      1372.191 7        46.498 7                                                                
C01  37493872.711 7 195240431.024 7        17.508 7        45.045 7  37493882.301 7 150972323.658 7        13.867 7        45.593 7  37493890.828 7 158648920.410 7        14.621 7        43.070 7
C02  37679193.637 6 196205451.998 6        36.082 6        41.502 6  37679200.363 7 151718526.907 7        27.559 7        44.219 7  37679211.738 7 159433077.375 7        29.094 7        42.607 7
C03  36888223.488 7 192086657.999 7        39.031 7        46.960 7  36888229.895 7 148533615.075 7        30.098 7        47.662 7  36888238.613 7 156086209.690 7        31.594 7        45.773 7
C04  38556303.727 6 200772793.629 6        -0.891 6        38.298 6  38556313.527 7 155250294.100 7        -0.586 7        44.831 7  38556320.180 6 163144410.891 6        -0.184 6        41.470 6
C05  39361040.961 6 204963271.479 6        39.891 6        39.448 6  39361054.340 7 158490657.924 7        30.820 7        42.936 7  39361060.730 6 166549524.590 6        32.238 6        40.103 6
C07  36087255.547 8 187915812.632 8      -591.027 8        48.165 8  36087260.945 8 145308443.986 8      -456.914 8        50.265 8  36087267.043 8 152697036.838 8      -479.988 8        48.676 8
C08  36268950.984 7 188861945.051 7      -206.164 7        47.760 7  36268957.281 8 146040062.661 8      -159.453 8        49.493 8  36268963.605 7 153465854.545 7      -167.801 7        47.639 7
C10  35792596.797 8 186381441.925 8      -239.973 8        48.265 8  35792605.598 8 144121987.212 8      -185.879 8        49.193 8  35792611.000 8 151450249.146 8      -195.105 8        48.219 8
C13  36846222.359 8 191867941.506 8       -63.039 8        49.797 8  36846233.344 7 148364519.169 7       -48.555 7        47.110 7  36846239.820 7 155908500.699 7       -51.238 7        46.942 7
S37  36956362.109 7 194206991.119 7         1.854 7        43.527 7
> 2022 06 21 05 04 20.0000000  0 24       0.000000000000
G02  23092632.309 7 121352607.410 7      1288.314 7        43.905 7  23092645.676 8  94560527.843 8      1003.998 8        48.763 8
G04  24344190.242 6 127929580.867 6       325.482 6        38.491 6  24344207.898 5  99685395.768 5       253.666 5        34.356 5
G06  20831077.793 8 109468051.730 8      -179.342 8        48.911 8  20831093.590 8  85299840.224 8      -139.654 8        50.226 8
G09  23485941.063 5 123419452.623 5      1616.420 5        33.325 5                                                                
G11  22268588.828 7 117022223.068 7      1594.193 7        45.314 7  22268604.711 8  91186214.445 8      1242.279 8        48.980 8
G12  23305172.320 6 122469519.333 6      2557.787 6        36.731 6  23305185.957 7  95430815.590 7      1993.139 7        42.622 7
G17  21073951.859 8 110744366.146 8      -701.627 8        48.479 8  21073965.055 8  86294348.330 8      -547.154 8        50.226 8
G19  20270882.074 8 106524203.540 8       263.959 8        49.007 8  20270893.320 8  83005920.558 8       205.678 8        50.226 8
G20  22760374.156 7 119606575.329 7      3024.896 7        43.663 7  22760389.496 6  93199935.749 6      2356.967 6        40.047 6
R07  20791907.617 8 111300714.856 8      -528.824 8        53.462 8  20791912.059 7  86567228.981 7      -411.211 7        47.346 7
R08  20799616.789 8 111380995.982 8      2970.311 8        51.867 8  20799620.656 8  86629695.837 8      2310.043 8        49.204 8
R12  22277498.922 8 119002406.651 8     -3609.357 8        49.392 8  22277509.520 7  92557464.825 7     -2807.213 7        45.654 7
R13  21504754.477 6 114834182.274 6     -1141.891 6        39.645 6  21504759.633 6  89315506.364 6      -888.994 6        38.554 6
R23  21341176.875 7 114160918.213 7      1372.826 7        44.269 7                                                                
C01  37493837.117 7 195240250.916 7        18.125 7        44.697 7  37493847.848 7 150972184.385 7        14.570 7        45.605 7  37493856.355 7 158648774.070 7        14.654 7        43.387 7
C02  37679124.664 6 196205090.594 6        37.109 6        41.470 6  37679131.246 7 151718247.442 7        28.105 7        44.065 7  37679142.563 7 159432783.693 7        29.557 7        42.913 7
C03  36888148.258 7 192086267.252 7        39.453 7        46.356 7  36888154.766 7 148533312.920 7        30.449 7        47.329 7  36888163.426 7 156085892.178 7        32.076 7        44.932 7
C04  38556304.582 6 200772797.209 6         0.723 6        38.854 6  38556314.742 7 155250296.909 7        -0.020 7        43.941 7  38556321.094 6 163144413.813 6        -0.150 6        40.556 6
C05  39360964.512 6 204962871.855 6        40.742 6        39.597 6  39360976.961 7 158490348.914 7        31.211 7        42.583 7  39360984.066 6 166549199.844 6        32.818 6        40.858 6
C07  36088391.191 8 187921726.909 8      -591.660 8        48.165 8  36088396.809 8 145313017.284 8      -457.381 8        50.298 8  36088402.867 8 152701842.698 8      -480.639 8        48.670 8
C08  36269347.238 7 188864008.999 7      -206.230 7        47.427 7  36269353.965 8 146041658.641 8      -159.375 8        49.684 8  36269359.797 7 153467531.673 7      -167.846 7        47.554 7
C10  35793058.195 7 186383846.197 7      -240.801 7        47.978 7  35793067.031 8 144123846.334 8      -186.309 8        48.990 8  35793072.684 7 151452202.788 7      -195.463 7        47.949 7
C13  36846343.273 8 191868572.216 8       -63.066 8        49.412 8  36846355.434 7 148365006.883 7       -48.711 7        47.435 7  36846361.086 7 155909013.195 7       -51.068 7        46.796 7
S37  36956358.316 7 194206970.756 7         2.768 7        43.795 7
> 2022 06 21 05 04 30.0000000  0 24       0.000000000000
G02  23090184.449 7 121339741.035 7      1286.074 7        44.801 7  23090197.285 8  94550502.133 8      1002.178 8        48.286 8
G04  24343576.246 6 127926355.541 6       319.336 6        38.428 6  24343594.891 5  99682882.531 5       248.994 5        35.806 5
G06  20831421.797 8 109469859.556 8      -181.875 8        48.900 8  20831437.840 8  85301254.922 8      -141.611 8        50.226 8
G09  23482872.039 5 123403322.657 5      1610.684 5        35.544 5                                                                
G11  22265558.867 7 117006297.489 7      1591.523 7        46.683 7  22265573.965 8  91173804.926 8      1240.264 8        49.334 8
G12  23300310.500 6 122443961.491 6      2552.188 6        38.232 6  23300322.777 7  95410900.354 7      1990.400 7        42.859 7
G17  21075291.500 8 110751403.202 8      -705.391 8        48.305 8  21075304.148 8  86299831.733 8      -549.775 8        50.226 8
G19  20270384.414 8 106521585.614 8       259.766 8        49.041 8  20270394.859 8  83003880.609 8       202.354 8        50.226 8
G20  22754620.871 7 119576343.803 7      3021.016 7        42.913 7  22754636.441 6  93176378.765 6      2354.033 6        39.431 6
R07  20792905.961 8 111306050.702 8      -538.008 8        51.788 8  20792909.254 7  86571379.084 7      -418.096 7        47.005 7
R08  20794075.594 8 111351326.753 8      2963.998 8        51.662 8  20794080.891 8  86606619.786 8      2305.268 8        49.172 8
R12  22284260.344 8 119038514.817 8     -3611.938 8        48.658 8  22284269.367 7  92585548.847 7     -2808.941 7        43.959 7
R13  21506900.246 6 114845645.991 6     -1151.404 6        39.548 6  21506906.695 6  89324422.511 6      -894.219 6        38.298 6
R23  21338613.613 8 114147196.985 8      1371.906 8        48.742 8                                                                
C01  37493803.719 7 195240069.673 7        18.037 7        45.058 7  37493813.160 7 150972044.238 7        13.986 7        45.353 7  37493821.441 7 158648626.779 7        14.717 7        43.242 7
C02  37679055.313 6 196204727.918 6        36.182 6        41.374 6  37679061.930 7 151717966.997 7        28.029 7        44.134 7  37679072.887 7 159432488.993 7        29.521 7        43.178 7
C03  36888073.324 7 192085875.478 7        38.994 7        46.693 7  36888079.266 7 148533009.978 7        30.080 7        47.499 7  36888088.285 7 156085573.818 7        31.650 7        45.642 7
C04  38556304.773 6 200772799.697 6         0.088 6        38.232 6  38556314.969 7 155250298.808 7        -0.213 7        44.368 7  38556321.793 6 163144415.811 6         0.225 6        40.967 6
C05  39360887.719 6 204962471.014 6        40.479 6        39.880 6  39360900.027 7 158490038.976 7        30.842 7        42.868 7  39360906.836 6 166548874.151 6        32.568 6        40.517 6
C07  36089529.895 8 187927653.880 8      -593.389 8        48.199 8  36089535.297 8 145317600.399 8      -458.980 8        50.615 8  36089541.102 8 152706658.841 8      -482.197 8        48.529 8
C08  36269745.301 7 188866079.181 7      -207.568 7        47.600 7  36269751.344 8 146043259.419 8      -160.328 8        49.669 8  36269757.414 7 153469213.862 7      -168.721 7        47.411 7
C10  35793521.934 7 186386263.656 7      -242.314 7        47.834 7  35793531.090 8 144125715.667 8      -187.359 8        49.018 8  35793537.035 8 151454167.182 8      -197.061 8        48.172 8
C13  36846465.414 8 191869209.433 8       -64.248 8        49.294 8  36846478.258 7 148365499.616 7       -49.842 7        47.885 7  36846483.363 7 155909530.982 7       -52.021 7        46.721 7
S37  36956354.324 7 194206949.159 7         1.934 7        43.586 7
> 2022 06 21 05 04 40.0000000  0 24       0.000000000000
G02  23087739.641 7 121326889.196 7      1284.182 7        45.340 7  23087751.473 7  94540487.743 7      1000.740 7        47.832 7
G04  24342972.316 6 127923181.787 6       314.787 6        37.427 6  24342990.359 5  99680409.512 5       245.311 5        35.209 5
G06  20831770.430 8 109471687.789 8      -183.982 8        49.493 8  20831783.438 8  85302671.517 8      -143.166 8        48.296 8
G09  23479810.219 6 123387231.328 6      1605.959 6        36.014 6                                                                
G11  22262533.391 7 116990394.051 7      1589.084 7        47.255 7  22262548.145 8  91161412.675 8      1238.203 8        49.447 8
G12  23295455.594 6 122418451.509 6      2548.264 6        37.263 6  23295468.832 7  95391022.486 7      1985.840 7        42.377 7
G17  21076637.480 8 110758475.172 8      -709.160 8        48.634 8  21076650.059 8  86305342.355 8      -552.482 8        50.226 8
G19  20269893.238 8 106519007.306 8       255.900 8        48.219 8  20269904.430 8  83001871.536 8       199.432 8        50.226 8
G20  22748873.645 7 119546141.422 7      3018.967 7        42.483 7  22748888.668 6  93152844.509 6      2352.578 6        39.058 6
R07  20793918.527 8 111311474.646 8      -546.773 8        52.692 8  20793919.961 7  86575597.693 7      -425.855 7        45.392 7
R08  20788546.039 8 111321716.255 8      2957.988 8        51.849 8  20788549.766 8  86583589.397 8      2300.479 8        49.018 8
R12  22291022.383 8 119074646.415 8     -3614.617 8        48.801 8  22291034.844 7  92613651.128 7     -2811.648 7        43.923 7
R13  21509061.535 6 114857186.686 6     -1157.934 6        38.854 6  21509068.125 6  89333398.569 6      -900.033 6        36.538 6
R23  21336050.535 7 114133479.732 7      1371.576 7        47.737 7                                                                
C01  37493768.719 7 195239889.453 7        17.672 7        45.418 7  37493778.055 7 150971904.899 7        13.658 7        45.456 7  37493786.992 7 158648480.357 7        14.365 7        43.178 7
C02  37678985.258 6 196204366.172 6        35.895 6        40.895 6  37678992.160 7 151717687.274 7        27.740 7        44.465 7  37679003.465 7 159432195.054 7        29.326 7        43.157 7
C03  36887998.367 7 192085484.808 7        39.000 7        46.518 7  36888004.234 7 148532707.893 7        30.143 7        47.677 7  36888013.320 7 156085256.378 7        31.396 7        45.773 7
C04  38556305.156 6 200772803.236 6        -0.551 6        37.662 6  38556315.457 7 155250301.521 7        -0.541 7        44.030 7  38556322.109 6 163144418.682 6        -0.518 6        40.672 6
C05  39360810.832 6 204962071.080 6        39.742 6        39.498 6  39360822.922 7 158489729.722 7        30.455 7        42.728 7  39360830.164 6 166548549.153 6        32.568 6        40.315 6
C07  36090670.434 8 187933595.738 8      -595.297 8        48.245 8  36090676.480 8 145322195.019 8      -460.150 8        50.668 8  36090682.254 8 152711487.074 8      -483.760 8        48.338 8
C08  36270144.121 7 188868157.704 7      -208.656 7        47.515 7  36270149.844 8 146044866.657 8      -160.854 8        49.674 8  36270156.617 7 153470902.820 7      -169.209 7        47.387 7
C10  35793989.258 7 186388696.318 7      -244.418 7        47.899 7  35793997.914 8 144127596.747 8      -188.705 8        49.123 8  35794004.141 7 151456143.916 7      -198.643 7        47.963 7
C13  36846588.961 8 191869855.164 8       -65.082 8        49.024 8  36846602.160 8 148365998.935 8       -50.678 8        48.138 8  36846607.477 7 155910055.690 7       -52.959 7        46.805 7
S37  36956350.660 7 194206928.393 7         1.760 7        43.263 7
> 2022 06 21 05 04 50.0000000  0 24       0.000000000000
G02  23085296.449 7 121314051.376 7      1283.166 7        44.831 7  23085309.070 7  94530484.258 7       999.914 7        47.957 7
G04  24342378.301 6 127920059.540 6       309.279 6        38.027 6  24342395.199 5  99677976.589 5       240.947 5        34.146 5
G06  20832120.961 8 109473536.023 8      -185.291 8        48.842 8  20832137.504 8  85304119.710 8      -144.521 8        50.226 8
G09  23476754.734 5 123371178.546 5      1603.967 5        35.017 5  23476758.770 3  96133402.199 3      1249.035 3        21.093 3
G11  22259510.246 7 116974512.392 7      1587.424 7        46.458 7  22259526.074 8  91149037.390 8      1237.063 8        49.486 8
G12  23290608.457 5 122392989.239 5      2543.869 5        35.017 5  23290624.227 7  95371181.753 7      1983.449 7        42.178 7
G17  21077989.375 8 110765581.874 8      -712.127 8        48.504 8  21078002.625 8  86310880.023 8      -554.717 8        50.226 8
G19  20269410.121 8 106516468.351 8       251.896 8        48.422 8  20269421.066 8  82999893.128 8       196.455 8        50.226 8
G20  22743131.039 7 119515967.923 7      3016.584 7        42.508 7  22743146.191 6  93129332.729 6      2350.598 6        39.568 6
R07  20794949.184 8 111316986.640 8      -554.973 8        52.493 8  20794951.762 7  86579884.829 7      -431.760 7        44.917 7
R08  20783026.988 8 111292164.744 8      2952.250 8        51.913 8  20783032.574 8  86560604.918 8      2296.234 8        49.299 8
R12  22297791.629 8 119110801.062 8     -3616.469 8        49.741 8  22297800.078 7  92641771.289 7     -2812.904 7        43.644 7
R13  21511236.617 6 114868804.056 6     -1165.234 6        38.854 6  21511240.770 5  89342434.272 5      -905.818 5        35.288 5
R23  21333486.359 8 114119766.269 8      1371.229 8        48.212 8                                                                
C01  37493734.051 7 195239709.890 7        18.023 7        44.874 7  37493743.531 7 150971766.055 7        14.057 7        45.418 7  37493752.238 7 158648334.441 7        14.637 7        42.680 7
C02  37678916.066 6 196204004.969 6        36.109 6        41.595 6  37678922.578 7 151717407.962 7        28.119 7        44.236 7  37678934.254 7 159431901.544 7        29.500 7        43.468 7
C03  36887923.023 7 192085094.872 7        39.137 7        46.712 7  36887929.430 7 148532406.365 7        30.307 7        47.246 7  36887938.445 7 156084939.526 7        31.961 7        45.889 7
C04  38556306.938 6 200772807.463 6        -0.512 6        38.165 6  38556316.238 7 155250304.786 7        -0.279 7        44.202 7  38556323.320 6 163144422.108 6        -0.129 6        40.748 6
C05  39360734.273 6 204961671.723 6        39.762 6        40.356 6  39360746.793 7 158489420.882 7        31.322 7        42.632 7  39360753.625 6 166548224.648 6        32.664 6        40.672 6
C07  36091814.090 8 187939551.950 8      -596.139 8        48.076 8  36091820.063 8 145326800.734 8      -460.807 8        50.497 8  36091826.188 8 152716326.982 8      -484.406 8        48.579 8
C08  36270544.699 7 188870244.276 7      -208.854 7        47.346 7  36270550.531 8 146046480.152 8      -161.471 8        49.402 8  36270557.277 7 153472598.338 7      -169.816 7        47.354 7
C10  35794459.273 8 186391143.811 8      -245.123 8        48.131 8  35794468.324 8 144129489.310 8      -189.850 8        49.134 8  35794474.250 8 151458132.706 8      -199.445 8        48.245 8
C13  36846714.914 8 191870509.068 8       -65.551 8        48.894 8  36846728.434 8 148366504.566 8       -50.455 8        48.272 8  36846732.930 7 155910587.050 7       -53.234 7        46.731 7
S37  36956346.613 7 194206908.140 7         2.150 7        43.284 7
> 2022 06 21 05 05  0.0000000  0 24       0.000000000000
G02  23082855.227 7 121301227.459 7      1281.344 7        43.959 7  23082868.934 7  94520491.652 7       998.510 7        47.340 7
G04  24341792.980 6 127916988.535 6       304.098 6        37.005 6  24341811.582 5  99675583.647 5       236.967 5        34.517 5
G06  20832476.617 8 109475404.077 8      -187.914 8        48.658 8  20832492.957 8  85305576.334 8      -146.314 8        50.226 8
G09  23473708.234 5 123355164.275 5      1598.551 5        35.666 5  23473715.320 4  96120923.494 4      1246.010 4        24.517 4
G11  22256491.793 7 116958652.344 7      1584.977 7        45.958 7  22256507.621 8  91136678.916 8      1234.994 8        49.615 8
G12  23285771.594 6 122367574.546 6      2538.531 6        36.014 6  23285788.719 7  95351378.109 7      1978.627 7        42.529 7
G17  21079348.387 8 110772723.009 8      -715.688 8        48.357 8  21079361.582 8  86316444.529 8      -557.506 8        50.226 8
G19  20268934.410 8 106513968.621 8       248.004 8        48.760 8  20268945.340 8  82997945.279 8       193.236 8        50.226 8
G20  22737394.980 7 119485823.183 7      3013.004 7        43.113 7  22737409.734 6  93105843.352 6      2347.768 6        40.002 6
R07  20795992.980 8 111322586.553 8      -564.605 8        51.543 8  20795996.277 7  86584240.322 7      -438.939 7        45.405 7
R08  20777518.641 8 111262671.902 8      2946.736 8        50.988 8  20777525.516 8  86537666.077 8      2291.377 8        48.652 8
R12  22304562.840 8 119146978.388 8     -3619.041 8        48.996 8  22304574.156 7  92669909.081 7     -2814.451 7        43.663 7
R13  21513427.414 6 114880497.800 6     -1173.430 6        38.616 6  21513432.141 6  89351529.445 6      -912.619 6        37.093 6
R23  21330921.715 8 114106056.485 8      1370.855 8        49.107 8                                                                
C01  37493699.027 7 195239530.764 7        18.193 7        44.667 7  37493709.617 7 150971627.543 7        13.764 7        45.738 7  37493717.629 7 158648188.891 7        14.451 7        42.728 7
C02  37678846.879 6 196203644.072 6        36.045 6        41.438 6  37678854.000 7 151717128.894 7        27.982 7        44.368 7  37678864.809 7 159431608.285 7        28.982 7        43.488 7
C03  36887848.543 7 192084705.494 7        39.268 7        46.805 7  36887854.449 7 148532105.271 7        30.189 7        47.321 7  36887863.504 7 156084623.127 7        31.463 7        45.666 7
C04  38556307.293 6 200772812.116 6        -0.205 6        38.795 6  38556316.988 7 155250308.401 7        -0.396 7        44.168 7  38556324.516 6 163144425.925 6        -0.549 6        41.276 6
C05  39360657.180 6 204961272.686 6        40.068 6        39.788 6  39360670.629 7 158489112.365 7        30.541 7        42.171 7  39360676.918 6 166547900.415 6        32.342 6        40.231 6
C07  36092960.793 8 187945522.525 8      -597.588 8        48.069 8  36092966.445 8 145331417.572 8      -462.115 8        50.445 8  36092972.848 8 152721178.576 8      -485.822 8        48.579 8
C08  36270946.645 7 188872338.548 7      -210.127 7        47.145 7  36270952.727 8 146048099.574 8      -162.350 8        49.612 8  36270959.543 7 153474300.103 7      -170.373 7        47.577 7
C10  35794932.441 8 186393606.077 8      -246.904 8        48.034 8  35794941.527 8 144131393.291 8      -191.178 8        49.453 8  35794946.895 8 151460133.495 8      -200.783 8        48.192 8
C13  36846841.621 8 191871170.908 8       -66.533 8        48.712 8  36846855.715 8 148367016.348 8       -51.646 8        48.402 8  36846860.172 7 155911124.840 7       -54.025 7        46.805 7
S37  36956342.676 7 194206888.171 7         1.891 7        43.407 7
> 2022 06 21 05 05 10.0000000  0 24       0.000000000000
G02  23080418.211 7 121288417.143 7      1279.678 7        44.742 7  23080431.129 7  94510509.627 7       997.057 7        47.565 7
G04  24341218.879 6 127913968.699 6       299.131 6        37.737 6  24341236.762 5  99673230.590 5       233.033 5        34.748 5
G06  20832836.617 8 109477291.637 8      -189.834 8        49.096 8  20832852.199 8  85307038.164 8      -148.002 8        50.226 8
G09  23470665.223 5 123339188.145 5      1593.232 5        32.407 5  23470679.492 4  96108508.591 4      1243.170 4        26.891 4
G11  22253478.258 7 116942813.605 7      1582.256 7        45.832 7  22253493.629 8  91124337.039 8      1233.014 8        49.206 8
G12  23280946.371 6 122342207.081 6      2533.740 6        36.824 6  23280961.465 6  95331611.379 6      1974.635 6        41.554 6
G17  21080713.895 8 110779898.241 8      -719.189 8        48.622 8  21080727.047 8  86322035.646 8      -560.775 8        50.226 8
G19  20268466.625 8 106511507.851 8       243.857 8        49.225 8  20268477.027 8  82996027.789 8       189.986 8        50.226 8
G20  22731663.844 7 119455707.007 7      3009.424 7        42.891 7  22731678.371 6  93082376.252 6      2345.025 6        40.508 6
R07  20797055.027 8 111328273.804 8      -573.316 8        51.668 8  20797060.039 7  86588663.741 7      -445.832 7        46.587 7
R08  20772022.957 8 111233237.668 8      2940.113 8        51.107 8  20772027.395 8  86514772.790 8      2286.770 8        49.013 8
R12  22311339.555 8 119183177.820 8     -3621.268 8        49.182 8  22311350.727 7  92698064.122 7     -2816.891 7        43.199 7
R13  21515630.016 6 114892267.466 6     -1181.652 6        38.165 6  21515634.598 6  89360683.595 6      -918.535 6        39.294 6
R23  21328359.848 7 114092349.908 7      1370.055 7        47.443 7                                                                
C01  37493665.344 7 195239351.840 7        17.434 7        45.045 7  37493674.684 7 150971489.192 7        13.336 7        45.340 7  37493683.426 7 158648043.503 7        14.092 7        42.936 7
C02  37678778.105 6 196203283.255 6        35.695 6        41.276 6  37678784.762 7 151716849.887 7        27.828 7        43.923 7  37678795.434 7 159431315.082 7        28.857 7        43.070 7
C03  36887773.582 7 192084316.424 7        38.625 7        46.778 7  36887779.844 7 148531804.417 7        29.801 7        47.246 7  36887788.848 7 156084306.973 7        31.299 7        45.366 7
C04  38556308.422 6 200772817.010 6        -0.398 6        38.232 6  38556317.938 7 155250312.193 7        -0.551 7        44.202 7  38556325.219 6 163144429.909 6        -0.869 6        40.595 6
C05  39360580.250 6 204960873.802 6        39.113 6        39.397 6  39360593.629 7 158488803.895 7        30.641 7        42.433 7  39360600.441 6 166547576.302 6        31.846 6        40.315 6
C07  36094110.121 8 187951507.068 8      -599.480 8        48.219 8  36094115.883 8 145336045.209 8      -463.713 8        50.441 8  36094121.941 8 152726041.518 8      -487.412 8        48.331 8
C08  36271350.430 7 188874440.379 7      -210.887 7        47.238 7  36271356.871 8 146049724.859 8      -163.148 8        49.802 8  36271363.254 7 153476008.023 7      -171.533 7        47.179 7
C10  35795408.598 8 186396082.813 8      -248.797 8        48.402 8  35795417.254 8 144133308.456 8      -192.602 8        49.361 8  35795422.520 7 151462146.036 7      -202.295 7        47.819 7
C13  36846969.563 8 191871840.434 8       -67.547 8        48.718 8  36846983.941 8 148367534.059 8       -52.484 8        48.083 8  36846988.844 7 155911668.880 7       -55.264 7        46.596 7
S37  36956338.938 7 194206868.275 7         1.357 7        43.242 7
> 2022 06 21 05 05 20.0000000  0 24       0.000000000000
G02  23077983.441 7 121275620.396 7      1279.107 7        44.742 7  23077995.992 7  94500538.126 7       996.631 7        47.539 7
G04  24340654.180 6 127911000.028 6       294.320 6        37.737 6  24340671.090 5  99670917.350 5       229.287 5        35.037 5
G06  20833198.867 8 109479198.753 8      -191.520 8        48.801 8  20833215.238 8  85308534.220 8      -149.287 8        50.226 8
G09  23467633.336 5 123323250.421 5      1590.904 5        31.564 5  23467649.832 4  96096103.728 4      1240.361 4        24.517 4
G11  22250467.977 7 116926996.153 7      1580.494 7        45.866 7  22250483.344 8  91112011.801 8      1231.475 8        49.429 8
G12  23276126.402 6 122316887.276 6      2529.947 6        36.538 6  23276142.328 7  95311881.669 7      1971.260 7        42.566 7
G17  21082085.801 8 110787107.958 8      -722.652 8        48.682 8  21082099.094 8  86327653.587 8      -563.467 8        50.226 8
G19  20268005.379 8 106509086.210 8       240.258 8        48.597 8  20268016.125 8  82994140.789 8       187.295 8        50.226 8
G20  22725938.250 7 119425619.539 7      3007.018 7        43.448 7  22725953.305 6  93058931.511 6      2343.096 6        41.722 6
R07  20798133.652 8 111334048.719 8      -581.729 8        51.175 8  20798138.953 8  86593155.357 8      -452.674 8        48.076 8
R08  20766537.406 8 111203862.299 8      2934.498 8        51.939 8  20766544.137 8  86491925.288 8      2282.547 8        49.166 8
R12  22318120.957 8 119219399.368 8     -3623.242 8        48.573 8  22318130.984 7  92726236.339 7     -2818.289 7        43.242 7
R13  21517847.336 6 114904113.155 6     -1188.666 6        38.736 6  21517855.930 6  89369896.872 6      -924.018 6        39.346 6
R23  21325797.230 8 114078646.850 8      1370.332 8        48.819 8                                                                
C01  37493631.016 7 195239173.188 7        18.152 7        45.154 7  37493640.711 7 150971351.053 7        13.523 7        45.605 7  37493649.254 7 158647898.332 7        14.664 7        42.913 7
C02  37678707.609 6 196202922.621 6        35.613 6        41.626 6  37678715.301 7 151716571.003 7        28.133 7        44.667 7  37678726.293 7 159431022.037 7        29.078 7        43.427 7
C03  36887699.223 7 192083927.727 7        38.914 7        46.721 7  36887705.020 7 148531503.854 7        30.184 7        47.530 7  36887714.242 7 156083991.114 7        31.793 7        45.506 7
C04  38556309.184 6 200772822.227 6        -0.324 6        38.298 6  38556319.309 7 155250316.231 7        -0.598 7        44.253 7  38556326.336 6 163144434.148 6        -0.707 6        41.374 6
C05  39360504.281 6 204960475.051 6        39.852 6        39.597 6  39360516.516 7 158488495.608 7        30.984 7        42.632 7  39360523.934 6 166547252.292 6        32.711 6        40.437 6
C07  36095262.027 8 187957505.789 8      -600.598 8        48.396 8  36095268.180 8 145340683.806 8      -464.348 8        50.493 8  36095273.938 8 152730915.960 8      -488.051 8        48.239 8
C08  36271756.109 7 188876549.722 7      -211.145 7        47.538 7  36271762.121 8 146051355.935 8      -163.371 8        49.912 8  36271768.465 7 153477722.051 7      -171.781 7        47.162 7
C10  35795886.930 8 186398574.042 8      -249.777 8        48.566 8  35795895.695 8 144135234.835 8      -193.332 8        49.252 8  35795901.004 7 151464170.359 7      -203.031 7        47.899 7
C13  36847099.824 8 191872517.794 8       -68.273 8        48.766 8  36847113.848 8 148368057.823 8       -52.473 8        48.357 8  36847118.953 7 155912219.289 7       -55.609 7        46.567 7
S37  36956334.875 7 194206848.495 7         2.094 7        43.003 7
> 2022 06 21 05 05 30.0000000  0 24       0.000000000000
G02  23075550.445 7 121262837.403 7      1277.322 7        44.816 7  23075564.195 8  94490577.379 8       995.260 8        48.035 8
G04  24340099.121 6 127908082.688 6       288.162 6        38.165 6  24340115.504 6  99668644.104 6       224.398 6        36.062 6
G06  20833565.605 8 109481125.504 8      -194.162 8        49.046 8  20833581.820 8  85310035.583 8      -151.324 8        50.226 8
